,City,Latitude,Longitude,Max Temp,Humidity,Cloudiness,Wind Speed,Date,Country
0,Ixtapa,20.7,-105.2,80.29,83,90,8.05,1599964578,MX
1,Synya,65.37,58.04,42.03,93,100,9.37,1599964579,RU
2,Albany,42.6,-73.97,57.22,99,0,8.21,1599964375,US
3,Jamestown,42.1,-79.24,64.35,88,90,12.75,1599964579,US
4,Clyde River,70.47,-68.59,33.8,83,90,4.7,1599964580,CA
5,Barrow,71.29,-156.79,39.2,93,90,13.87,1599964477,US
6,Zhigansk,66.77,123.37,49.46,83,99,5.86,1599964580,RU
7,Kaitangata,-46.28,169.85,50.0,86,100,1.99,1599964581,NZ
8,Mabaruma,8.2,-59.78,77.34,89,0,3.47,1599964581,GY
9,Jining,35.41,116.58,77.59,62,46,5.53,1599964581,CN
10,Bluff,-46.6,168.33,48.0,97,100,3.0,1599964582,NZ
11,Upernavik,72.79,-56.15,30.07,95,100,8.7,1599964582,GL
12,Castro Urdiales,43.38,-3.22,60.98,93,0,3.36,1599964583,ES
13,Jasper,37.2,-94.35,63.79,100,1,3.36,1599964484,US
14,Ketchikan,55.34,-131.65,60.8,63,1,4.7,1599964583,US
15,Kahului,20.89,-156.47,81.73,48,40,23.04,1599964584,US
16,New Norfolk,-42.78,147.06,55.45,52,57,4.0,1599964584,AU
17,Portland,45.52,-122.68,60.93,67,90,0.83,1599964320,US
18,Dikson,73.51,80.55,43.52,93,100,17.9,1599964585,RU
19,Pak Kret,13.91,100.5,87.71,94,20,5.82,1599964585,TH
20,Tiksi,71.69,128.87,48.79,67,0,3.22,1599964585,RU
21,Hermanus,-34.42,19.23,57.99,84,87,7.0,1599964586,ZA
22,Mana,5.66,-53.78,79.95,85,36,12.91,1599964586,GF
23,Bengkulu,-3.8,102.27,82.9,70,33,8.28,1599964586,ID
24,Qandala,11.47,49.87,87.78,57,7,1.7,1599964587,SO
25,Erzin,36.96,36.2,79.0,86,1,1.39,1599964587,TR
26,Aiken,33.58,-81.6,75.07,94,1,6.93,1599964587,US
27,Chui,-33.7,-53.46,50.27,86,2,4.52,1599964588,UY
28,Sorong,-0.88,131.25,83.07,75,97,10.45,1599964409,ID
29,Portree,57.41,-6.19,51.01,93,100,3.0,1599964588,GB
30,Punta Arenas,-53.15,-70.92,39.11,93,100,12.75,1599964336,CL
31,Puerto Madryn,-42.77,-65.04,51.62,43,2,22.1,1599964589,AR
32,Miandrivazo,-19.52,45.47,73.26,67,6,1.14,1599964589,MG
33,Poronaysk,49.22,143.12,60.85,58,11,6.08,1599964590,RU
34,Dayong,25.02,118.29,84.2,74,20,11.18,1599964590,CN
35,Hobart,-42.88,147.33,58.39,38,20,19.46,1599964423,AU
36,Saldanha,-33.01,17.94,57.2,87,98,8.05,1599964591,ZA
37,Bethel,41.37,-73.41,54.9,93,1,4.25,1599964383,US
38,Kerema,-7.96,145.78,79.21,72,47,11.39,1599964591,PG
39,Kapaa,22.08,-159.32,82.49,58,20,11.41,1599964592,US
40,Tasiilaq,65.61,-37.64,33.8,74,99,2.73,1599964592,GL
41,New Delhi,28.61,77.23,84.96,83,0,4.45,1599964592,IN
42,Port Alfred,-33.59,26.89,67.23,51,51,1.32,1599964593,ZA
43,Atuona,-9.8,-139.03,78.28,75,28,16.17,1599964593,PF
44,Ancud,-41.87,-73.82,38.77,97,53,15.99,1599964593,CL
45,Acaraú,-2.89,-40.12,77.54,82,0,18.05,1599964594,BR
46,East London,-33.02,27.91,73.06,39,2,5.55,1599964595,ZA
47,Longyearbyen,78.22,15.64,37.4,90,75,2.24,1599964529,SJ
48,Rikitea,-23.12,-134.97,73.31,84,65,11.65,1599964595,PF
49,Leshukonskoye,64.9,45.76,46.67,94,100,10.0,1599964595,RU
50,Hamilton,39.18,-84.53,76.69,94,40,7.99,1599964463,US
51,Geraldton,-28.77,114.6,71.6,43,0,17.22,1599964596,AU
52,Saskylakh,71.92,114.08,52.34,54,34,4.9,1599964596,RU
53,Ushuaia,-54.8,-68.3,41.0,75,75,3.36,1599964375,AR
54,Puerto Escondido,15.85,-97.07,81.7,79,100,6.33,1599964597,MX
55,Falam,22.92,93.68,74.03,71,100,0.6,1599964597,MM
56,Thompson,55.74,-97.86,39.2,86,75,3.36,1599964598,CA
57,Viedma,-40.81,-63.0,49.28,50,43,9.75,1599964598,AR
58,Norman Wells,65.28,-126.83,39.2,64,75,6.93,1599964598,CA
59,Visnes,59.36,5.22,53.51,76,100,23.04,1599964599,NO
60,Ahipara,-35.17,173.17,57.63,60,0,9.86,1599964599,NZ
61,Comodoro Rivadavia,-45.87,-67.5,48.2,45,0,25.28,1599964600,AR
62,Gilbués,-9.83,-45.34,67.78,34,0,5.08,1599964600,BR
63,Busselton,-33.65,115.33,63.91,51,9,1.52,1599964600,AU
64,Pevek,69.7,170.31,44.11,79,0,2.86,1599964601,RU
65,Carnarvon,-24.87,113.63,78.8,29,0,17.22,1599964601,AU
66,Ust-Maya,60.42,134.53,67.68,53,19,2.51,1599964390,RU
67,Puerto Ayora,-0.74,-90.35,66.99,91,98,7.0,1599964602,EC
68,Hilo,19.73,-155.09,74.32,61,90,9.17,1599964602,US
69,Akdepe,42.06,59.38,57.24,54,3,4.7,1599964603,TM
70,Butaritari,3.07,172.79,81.97,71,59,13.38,1599964603,KI
71,Youghal,51.95,-7.85,59.67,93,75,17.22,1599964604,IE
72,Bilma,18.69,12.92,86.22,17,11,1.41,1599964604,NE
73,Roseburg,43.22,-123.34,63.52,52,90,3.02,1599964367,US
74,Isangel,-19.55,169.27,77.0,69,90,9.17,1599964605,VU
75,Gejiu,23.31,103.16,61.45,100,100,4.09,1599964605,CN
76,Sikonge,-5.63,32.77,71.6,53,73,11.41,1599964605,TZ
77,Nyírbéltek,47.7,22.13,59.36,88,0,4.7,1599964606,HU
78,Mataura,-46.19,168.86,48.0,97,100,3.0,1599964606,NZ
79,Saint Paul Harbor,57.79,-152.41,59.0,54,1,6.93,1599964607,US
80,Palmer,42.16,-72.33,52.12,93,0,3.31,1599964483,US
81,Khorinsk,52.17,109.77,53.02,88,100,1.12,1599964607,RU
82,Cidreira,-30.18,-50.21,63.63,94,100,13.6,1599964608,BR
83,Boguchany,58.38,97.45,54.86,63,90,4.63,1599964608,RU
84,Paamiut,61.99,-49.67,37.29,71,81,8.84,1599964608,GL
85,Provideniya,64.38,-173.3,45.5,70,82,15.3,1599964609,RU
86,Lamar,33.67,-95.58,74.03,88,1,3.36,1599964609,US
87,Kulhudhuffushi,6.62,73.07,81.61,79,94,11.65,1599964610,MV
88,Nemuro,43.32,145.57,59.0,72,75,12.75,1599964610,JP
89,Beringovskiy,63.05,179.32,48.38,92,100,34.23,1599964610,RU
90,Eureka,40.8,-124.16,54.41,100,22,6.82,1599964611,US
91,Hithadhoo,-0.6,73.08,82.85,69,98,8.28,1599964611,MV
92,Da Lat,11.95,108.44,77.13,63,57,0.16,1599964611,VN
93,Bathsheba,13.22,-59.52,80.6,88,20,5.82,1599964612,BB
94,Kolāras,25.23,77.6,82.94,67,5,3.74,1599964612,IN
95,Puri,19.8,85.85,84.2,89,40,6.93,1599964612,IN
96,Qaanaaq,77.48,-69.36,25.18,86,95,9.53,1599964613,GL
97,Alofi,-19.06,-169.92,77.0,69,22,13.87,1599964613,NU
98,Bhawānipatna,19.9,83.17,82.31,78,89,2.04,1599964614,IN
99,Faanui,-16.48,-151.75,78.98,76,80,9.64,1599964614,PF
100,Shenjiamen,29.96,122.3,77.4,71,100,9.28,1599964615,CN
101,Bukowno,50.26,19.46,56.34,98,0,3.44,1599964358,PL
102,Kruisfontein,-34.0,24.73,66.0,42,97,1.01,1599964615,ZA
103,Broome,42.25,-75.83,60.04,77,90,8.05,1599964615,US
104,Maragogi,-9.01,-35.22,72.88,83,4,10.89,1599964616,BR
105,Piracuruca,-3.93,-41.71,76.26,75,84,4.59,1599964616,BR
106,Ribeira Grande,38.52,-28.7,71.11,77,49,8.81,1599964616,PT
107,Slobidka,47.89,29.35,54.86,46,0,2.19,1599964617,UA
108,Tonekābon,36.82,50.87,73.4,83,20,4.7,1599964617,IR
109,Bytosh',53.82,34.09,42.8,87,11,6.71,1599964618,RU
110,Katsuura,35.13,140.3,80.26,76,58,3.0,1599964618,JP
111,Bambous Virieux,-20.34,57.76,68.0,88,40,2.24,1599964618,MU
112,Sosnovo-Ozerskoye,52.52,111.54,55.02,84,86,13.69,1599964619,RU
113,Arraial do Cabo,-22.97,-42.03,72.57,83,7,30.02,1599964619,BR
114,Jinchang,38.5,102.17,65.53,36,60,5.37,1599964620,CN
115,Aksu,41.12,80.26,71.15,38,0,3.47,1599964620,CN
116,Nong Chik,6.84,101.18,82.26,75,100,8.99,1599964621,TH
117,Port Hedland,-20.32,118.57,93.2,16,0,17.22,1599964621,AU
118,Mahébourg,-20.41,57.7,68.0,88,40,2.24,1599964621,MU
119,Ostrovnoy,68.05,39.51,48.96,92,100,10.94,1599964622,RU
120,Beira,-19.84,34.84,73.2,83,40,6.93,1599964622,MZ
121,La Ronge,55.1,-105.28,46.4,75,75,9.17,1599964623,CA
122,Hare Bay,48.85,-54.01,48.11,87,20,10.29,1599964623,CA
123,Sudak,44.85,34.97,69.58,67,5,14.07,1599964624,UA
124,Xiaoyi,34.62,109.7,79.29,51,41,6.26,1599964624,CN
125,Vestmanna,62.16,-7.17,46.4,87,99,8.05,1599964624,FO
126,Cape Town,-33.93,18.42,55.35,93,75,18.34,1599964334,ZA
127,Batagay,67.63,134.63,59.13,42,96,1.95,1599964625,RU
128,Raudeberg,61.99,5.14,52.0,84,100,35.32,1599964625,NO
129,Zaplavnoye,48.7,45.02,50.92,66,0,8.95,1599964626,RU
130,Boyolangu,-8.12,111.89,83.14,59,99,11.23,1599964626,ID
131,Denpasar,-8.65,115.22,86.0,74,40,13.87,1599964343,ID
132,Port Lincoln,-34.73,135.87,59.36,58,0,11.23,1599964627,AU
133,Vredendal,-31.67,18.5,59.38,80,98,15.66,1599964627,ZA
134,Ilulissat,69.22,-51.1,30.2,68,0,1.12,1599964628,GL
135,Kiryat Gat,31.61,34.76,73.24,9,0,0.4,1599964628,IL
136,Gambēla,8.25,34.58,67.75,88,17,3.49,1599964628,ET
137,Anloga,5.79,0.9,73.4,94,40,4.7,1599964629,GH
138,Tuktoyaktuk,69.45,-133.04,32.0,90,90,8.05,1599964629,CA
139,Revelstoke,50.98,-118.2,66.2,72,1,2.24,1599964630,CA
140,Samarai,-10.62,150.67,77.49,74,15,11.61,1599964630,PG
141,Saint-Philippe,-21.36,55.77,57.83,59,40,8.05,1599964630,RE
142,Ghoti,19.72,73.62,73.92,92,81,7.85,1599964631,IN
143,Gisborne,-38.65,178.0,58.8,49,0,6.22,1599964631,NZ
144,Makakilo City,21.35,-158.09,84.83,58,90,9.17,1599964632,US
145,Conakry,9.54,-13.68,80.6,88,40,9.17,1599964632,GN
146,Avera,33.19,-82.53,76.33,100,1,6.93,1599964632,US
147,Yar-Sale,66.83,70.83,50.38,91,100,5.57,1599964633,RU
148,Takaoka,36.75,137.02,75.94,94,75,2.24,1599964633,JP
149,Aklavik,68.22,-135.01,33.8,64,90,9.17,1599964633,CA
150,Pangnirtung,66.15,-65.71,35.26,83,0,1.7,1599964634,CA
151,Tungor,53.38,142.96,64.98,46,0,1.57,1599964634,RU
152,Westport,41.14,-73.36,60.98,55,1,11.41,1599964506,US
153,Poum,-20.23,164.02,72.82,73,64,17.78,1599964635,NC
154,Hofn,64.25,-15.21,43.93,65,0,14.67,1599964635,IS
155,Klaksvík,62.23,-6.59,46.4,87,100,8.05,1599964636,FO
156,Sāveh,35.02,50.36,67.68,46,0,1.3,1599964636,IR
157,Tura,25.52,90.22,77.72,95,100,2.77,1599964637,IN
158,Cockburn Town,21.46,-71.14,83.68,72,23,12.97,1599964393,TC
159,Deputatsky,69.3,139.9,52.61,48,100,2.68,1599964638,RU
160,Mehamn,71.04,27.85,45.1,79,100,6.78,1599964638,NO
161,Anta,25.15,76.3,85.15,61,43,1.86,1599964639,IN
162,Saint George,37.1,-113.58,89.6,8,1,2.15,1599964565,US
163,Grindavik,63.84,-22.43,46.4,70,90,12.75,1599964639,IS
164,Cabo San Lucas,22.89,-109.91,82.45,78,40,4.7,1599964640,MX
165,Hobyo,5.35,48.53,78.01,79,96,24.79,1599964640,SO
166,Dutse,11.76,9.34,72.91,86,58,7.65,1599964641,NG
167,Adrar,20.5,-10.07,88.54,40,55,10.13,1599964641,MR
168,Pauini,-7.71,-66.98,79.03,62,11,0.76,1599964641,BR
169,Wattegama,6.8,81.48,78.8,100,40,6.93,1599964642,LK
170,Husavik,66.04,-17.34,39.2,86,90,9.17,1599964642,IS
171,Daman,20.42,72.85,81.46,86,62,11.95,1599964642,IN
172,Safi,32.3,-9.24,68.67,87,100,2.91,1599964643,MA
173,Margate,51.38,1.39,57.36,92,69,13.42,1599964643,GB
174,Ushibukamachi,32.19,130.02,80.47,67,9,3.27,1599964643,JP
175,Constitución,-35.33,-72.42,48.43,79,2,10.98,1599964644,CL
176,High Level,58.52,-117.14,48.2,76,75,2.8,1599964644,CA
177,Vikulovo,56.82,70.61,54.3,85,100,4.29,1599964645,RU
178,Guilin,25.28,110.29,78.8,69,75,6.71,1599964409,CN
179,Petropavlovsk-Kamchatskiy,53.05,158.65,64.4,42,85,11.18,1599964646,RU
180,Vaini,-21.2,-175.2,71.6,73,75,12.75,1599964646,TO
181,Port Augusta,-32.5,137.77,61.7,59,13,17.22,1599964646,AU
182,Los Llanos de Aridane,28.66,-17.92,73.4,73,90,3.36,1599964647,ES
183,Asău,46.43,26.4,59.0,80,0,3.65,1599964647,RO
184,Port-Gentil,-0.72,8.78,76.5,84,100,16.08,1599964648,GA
185,Goderich,43.75,-81.72,68.34,89,96,1.99,1599964648,CA
186,Coyhaique,-45.58,-72.07,35.6,93,40,5.82,1599964649,CL
187,Cabedelo,-6.98,-34.83,73.4,83,20,4.7,1599964649,BR
188,Santa Cruz Cabrália,-16.28,-39.02,75.2,73,40,12.75,1599964650,BR
189,Abu Kamal,34.45,40.92,80.17,18,0,4.27,1599964650,SY
190,George Town,5.41,100.34,79.45,78,40,10.29,1599964650,MY
191,Great Bend,38.36,-98.76,67.33,64,1,5.82,1599964651,US
192,Inírida,3.87,-67.92,75.18,89,73,1.81,1599964651,CO
193,Yellowknife,62.46,-114.35,43.02,93,90,5.82,1599964651,CA
194,Hobbs,32.7,-103.14,71.8,35,1,5.82,1599964652,US
195,Mar del Plata,-38.0,-57.56,50.11,66,0,13.87,1599964543,AR
196,Gigmoto,13.78,124.39,86.56,65,65,2.75,1599964652,PH
197,Saint Anthony,45.02,-93.22,58.48,77,90,5.19,1599964653,US
198,Khatanga,71.97,102.5,55.09,65,52,7.0,1599964653,RU
199,Nantucket,41.28,-70.1,59.94,82,1,8.05,1599964458,US
200,Novochernorechenskiy,56.27,91.08,54.91,62,2,3.0,1599964654,RU
201,Ilām,26.92,87.92,80.6,88,75,2.24,1599964654,NP
202,Monte Patria,-30.69,-70.95,59.68,52,0,0.76,1599964655,CL
203,Prince Rupert,54.32,-130.32,57.2,87,90,2.24,1599964484,CA
204,Boundiali,9.52,-6.49,70.23,97,100,2.59,1599964655,CI
205,Kavieng,-2.57,150.8,84.04,77,61,13.73,1599964656,PG
206,Labuhan,-6.88,112.21,88.3,51,83,5.26,1599964656,ID
207,Leer,8.3,30.14,70.34,94,83,3.22,1599964656,SS
208,Christchurch,-43.53,172.63,59.41,62,97,3.36,1599964657,NZ
209,Vila Velha,-20.33,-40.29,73.56,88,26,5.82,1599964657,BR
210,Dingle,11.0,122.67,86.94,70,59,5.41,1599964658,PH
211,Caravelas,-17.71,-39.25,70.97,86,0,6.53,1599964658,BR
212,Burns Lake,54.23,-125.75,55.56,55,100,1.59,1599964658,CA
213,Faya,18.39,42.45,61.7,27,25,2.39,1599964659,SA
214,Aberdeen,57.14,-2.1,53.26,93,100,8.05,1599964659,GB
215,Pallasovka,50.05,46.88,51.8,72,0,6.35,1599964659,RU
216,Kieta,-6.22,155.63,85.64,65,7,5.46,1599964660,PG
217,Ust'-Omchug,61.15,149.63,52.93,43,0,9.57,1599964660,RU
218,Harar,9.31,42.13,57.25,87,32,5.82,1599964661,ET
219,Mahon,39.89,4.27,71.6,94,68,8.05,1599964661,ES
220,Okhotsk,59.38,143.3,65.12,44,2,7.14,1599964662,RU
221,Esperance,-33.87,121.9,62.6,67,75,5.82,1599964662,AU
222,Chokurdakh,70.63,147.92,58.05,44,0,5.39,1599964663,RU
223,Leningradskiy,69.38,178.42,48.02,67,0,6.89,1599964663,RU
224,Manado,1.49,124.85,78.8,88,40,2.24,1599964464,ID
225,Astoria,46.19,-123.83,55.94,93,90,4.7,1599964664,US
226,Buala,-8.14,159.59,85.15,70,31,5.28,1599964664,SB
227,Namatanai,-3.67,152.43,83.3,78,96,11.72,1599964664,PG
228,Malbork,54.04,19.03,54.0,100,90,7.87,1599964665,PL
229,Umm Kaddadah,13.6,26.69,77.0,71,100,14.32,1599964665,SD
230,Hirara,24.8,125.28,82.4,83,75,6.93,1599964666,JP
231,Nelson Bay,-32.72,152.15,75.02,38,100,17.22,1599964666,AU
232,Araouane,18.9,-3.53,93.42,28,21,8.68,1599964667,ML
233,Khandyga,62.67,135.6,61.95,50,100,1.95,1599964667,RU
234,Muisne,0.6,-80.03,74.01,88,100,9.4,1599964668,EC
235,Watari,38.03,140.85,73.4,78,75,5.82,1599964668,JP
236,Whitianga,-36.83,175.7,60.01,67,1,8.01,1599964668,NZ
237,Bredasdorp,-34.53,20.04,57.2,87,95,4.7,1599964669,ZA
238,Betioky,-23.72,44.38,65.19,90,0,8.63,1599964669,MG
239,Lompoc,34.64,-120.46,59.47,93,75,6.93,1599964670,US
240,Mayuge,0.46,33.48,65.55,86,70,6.64,1599964670,UG
241,Kirakira,-10.45,161.92,84.83,69,2,7.4,1599964671,SB
242,Hearst,49.68,-83.67,55.98,97,100,8.01,1599964671,CA
243,Kapit,2.02,112.93,83.55,83,91,0.22,1599964671,MY
244,Coruripe,-10.13,-36.18,73.15,79,0,11.56,1599964672,BR
245,Esso,55.93,158.7,42.28,74,100,18.99,1599964672,RU
246,Lorengau,-2.02,147.27,85.68,72,55,13.49,1599964673,PG
247,Half Moon Bay,37.46,-122.43,65.17,100,90,5.82,1599964673,US
248,Hong Kong,22.29,114.16,84.99,80,100,5.99,1599964524,HK
249,Haisyn,48.81,29.39,55.02,47,3,3.2,1599964674,UA
250,Torbay,47.67,-52.73,52.3,81,90,9.17,1599964674,CA
251,Aspindza,41.57,43.25,60.42,53,0,5.14,1599964643,GE
252,Telimele,10.92,-13.33,69.22,100,86,2.82,1599964675,GN
253,Hanyang,32.14,105.51,64.9,91,100,0.36,1599964675,CN
254,Kashgar,39.45,75.98,66.2,48,0,4.47,1599964675,CN
255,Grande Prairie,55.17,-118.8,51.8,66,90,9.17,1599964617,CA
256,Letterkenny,54.95,-7.73,59.47,89,100,16.55,1599964676,IE
257,Okha,53.57,142.95,62.98,48,0,2.08,1599964676,RU
258,Tilichiki,60.47,166.1,48.4,71,94,28.21,1599964677,RU
259,Pacific Grove,36.62,-121.92,57.06,97,17,1.86,1599964429,US
260,Champerico,14.3,-91.92,66.36,94,97,5.73,1599964677,GT
261,Peruíbe,-24.32,-47.0,68.54,91,71,6.24,1599964678,BR
262,Diamantino,-14.41,-56.45,79.77,25,0,6.42,1599964678,BR
263,Barranca,-10.75,-77.77,57.87,92,15,5.03,1599964678,PE
264,Necochea,-38.55,-58.74,50.0,42,0,10.0,1599964679,AR
265,Bubaque,11.28,-15.83,79.43,84,95,9.06,1599964679,GW
266,Agua Dulce,18.13,-94.13,79.12,89,100,10.27,1599964680,MX
267,Kozhva,65.11,57.05,43.3,92,100,7.45,1599964680,RU
268,Batemans Bay,-35.72,150.18,58.6,74,100,8.99,1599964680,AU
269,Flin Flon,54.77,-101.86,44.04,91,95,5.68,1599964681,CA
270,Ballina,-28.87,153.57,69.22,64,90,6.93,1599964681,AU
271,Touros,-5.2,-35.46,69.8,94,20,3.36,1599964589,BR
272,Alice Springs,-23.7,133.88,84.2,8,0,9.17,1599964682,AU
273,Saurimo,-9.66,20.39,65.77,31,42,5.21,1599964682,AO
274,Lebu,-37.62,-73.65,46.6,80,30,9.13,1599964683,CL
275,Iqaluit,63.75,-68.51,38.21,86,75,5.82,1599964683,CA
276,Olafsvik,64.89,-23.71,42.49,77,100,18.95,1599964683,IS
277,Manokwari,-0.87,134.08,85.71,68,92,8.72,1599964683,ID
278,Castro,-24.79,-50.01,66.72,40,0,3.22,1599964684,BR
279,Yonibana,8.44,-12.24,71.19,98,60,0.96,1599964684,SL
280,Sterling,39.01,-77.43,65.52,72,90,10.29,1599964684,US
281,Pampa,35.54,-100.96,70.09,49,1,4.7,1599964685,US
282,Iraray,8.99,118.05,86.11,69,96,3.6,1599964685,PH
283,Coquimbo,-29.95,-71.34,55.09,75,0,2.66,1599964685,CL
284,Lüderitz,-26.65,15.16,59.65,79,96,14.45,1599964686,NA
285,Le Port,-20.94,55.29,58.6,68,20,9.17,1599964686,RE
286,São João da Barra,-21.64,-41.05,72.9,84,0,25.01,1599964686,BR
287,Verkhnyaya Inta,65.98,60.31,43.65,88,41,9.78,1599964687,RU
288,High Rock,26.62,-78.28,83.37,75,100,15.05,1599964687,BS
289,Blagoyevo,63.37,47.92,44.64,93,98,9.35,1599964688,RU
290,Port Elizabeth,-33.92,25.57,68.0,37,93,6.93,1599964599,ZA
291,Sitka,57.05,-135.33,59.0,58,75,8.05,1599964688,US
292,Luba,3.46,8.55,75.2,100,75,5.82,1599964688,GQ
293,Melito di Porto Salvo,37.92,15.77,75.4,78,75,5.82,1599964689,IT
294,Yurginskoye,56.82,67.39,51.66,84,100,3.58,1599964689,RU
295,Kawalu,-7.38,108.21,76.78,75,96,5.14,1599964689,ID
296,Hunchun,42.87,130.36,55.04,90,100,4.99,1599964690,CN
297,Burgersdorp,-31.0,26.33,56.57,37,5,12.97,1599964690,ZA
298,Ōzu,33.5,132.55,81.34,74,75,5.82,1599964691,JP
299,Tautira,-17.73,-149.15,82.4,69,40,10.29,1599964691,PF
300,Namikupa,-10.83,39.6,66.76,95,44,3.67,1599964691,TZ
301,Padang,-0.95,100.35,83.86,61,100,3.29,1599964692,ID
302,Itamaracá,-7.75,-34.83,77.0,73,40,11.41,1599964692,BR
303,Greenville,35.61,-77.37,70.57,77,1,6.93,1599964692,US
304,Empalme,27.97,-110.82,91.85,52,5,5.82,1599964693,MX
305,Pemberton,50.32,-122.8,64.4,63,5,3.36,1599964693,CA
306,Canatlán,24.52,-104.78,62.01,87,100,3.0,1599964694,MX
307,Makkaveyevo,51.75,113.95,51.8,93,75,6.71,1599964694,RU
308,Usinsk,65.99,57.53,42.62,92,100,14.03,1599964694,RU
309,Hasaki,35.73,140.83,80.29,83,75,4.7,1599964695,JP
310,Palo del Colle,41.06,16.7,70.77,88,6,4.7,1599964695,IT
311,Jiwani,25.05,61.74,82.4,73,1,4.21,1599964695,PK
312,Tuatapere,-46.13,167.68,48.0,97,100,3.0,1599964696,NZ
313,Alenquer,-1.94,-54.74,80.6,88,9,3.36,1599964619,BR
314,Birin,26.89,88.07,80.6,88,75,2.24,1599964696,NP
315,Kilindoni,-7.91,39.67,77.27,81,2,13.11,1599964696,TZ
316,Narsaq,60.92,-46.05,35.6,47,81,6.93,1599964697,GL
317,West Odessa,31.84,-102.5,76.48,61,1,8.05,1599964697,US
318,Bluffton,32.24,-80.86,81.14,78,75,8.05,1599964478,US
319,Ngunguru,-35.62,174.5,66.0,48,0,8.01,1599964698,NZ
320,Kutum,14.2,24.67,74.12,67,86,4.68,1599964698,SD
321,Alanya,36.54,32.0,71.6,94,0,5.82,1599964698,TR
322,Tuy Hoa,13.08,109.3,89.06,57,1,1.21,1599964563,VN
323,Vostok,46.49,135.88,62.11,38,100,7.9,1599964699,RU
324,Toguchin,55.24,84.39,53.02,66,42,5.06,1599964699,RU
325,Rusape,-18.53,32.13,49.21,81,0,2.35,1599964700,ZW
326,Praia,14.92,-23.51,79.03,86,99,17.07,1599964700,CV
327,Le Vauclin,14.55,-60.84,77.59,88,71,2.24,1599964700,MQ
328,Tual,-5.67,132.75,79.12,77,24,19.04,1599964700,ID
329,Sur,22.57,59.53,84.97,46,65,3.06,1599964701,OM
330,Guerrero Negro,27.98,-114.06,76.64,54,0,14.12,1599964615,MX
331,Nikolskoye,59.7,30.79,55.13,87,90,15.66,1599964701,RU
332,Charopo,41.27,23.38,64.99,53,0,5.01,1599964702,GR
333,Baker City,44.77,-117.83,65.66,63,90,2.59,1599964664,US
334,Teluknaga,-6.1,106.64,85.03,66,20,5.82,1599964702,ID
335,Luwingu,-10.26,29.93,60.39,61,88,6.35,1599964703,ZM
336,Sambava,-14.27,50.17,68.79,86,36,12.08,1599964703,MG
337,Altamont,42.21,-121.74,75.04,19,90,11.41,1599964703,US
338,Gao,16.64,1.64,89.47,32,0,6.2,1599964704,ML
339,Vanimo,-2.67,141.3,87.71,62,97,8.5,1599964704,PG
340,Vicuña,-30.03,-70.71,53.01,60,0,0.76,1599964705,CL
341,Juazeiro,-9.41,-40.5,69.78,68,0,19.98,1599964705,BR
342,Amroha,28.92,78.47,84.74,68,0,4.63,1599964705,IN
343,Parrsboro,45.4,-64.33,51.75,65,66,5.01,1599964706,CA
344,Arlit,18.74,7.39,91.35,17,0,2.98,1599964706,NE
345,Erenhot,43.65,111.98,69.67,37,99,10.29,1599964707,CN
346,Cap Malheureux,-19.98,57.61,68.0,83,0,5.99,1599964707,MU
347,Roald,62.58,6.13,50.76,76,100,31.09,1599964708,NO
348,Hässleholm,56.16,13.77,54.9,87,100,10.29,1599964708,SE
349,Pangai,-19.8,-174.35,71.51,69,44,18.99,1599964708,TO
350,Tessalit,20.2,1.01,89.19,15,0,4.97,1599964709,ML
351,Fort Morgan,40.25,-103.8,62.6,36,1,5.82,1599964653,US
352,Pulandian,39.4,121.97,75.2,73,75,8.95,1599964709,CN
353,Laguna,38.42,-121.42,78.96,36,90,6.91,1599964667,US
354,Taltal,-25.4,-70.48,55.33,76,22,5.61,1599964710,CL
355,San Ignacio,17.16,-89.07,73.0,88,92,0.65,1599964710,BZ
356,Rio Grande,-32.03,-52.1,57.0,95,100,3.62,1599964601,BR
357,Aripuanã,-9.17,-60.63,79.57,47,15,1.45,1599964711,BR
358,Fare,-16.7,-151.02,79.88,75,80,10.11,1599964711,PF
359,Talnakh,69.49,88.4,51.8,87,99,13.42,1599964712,RU
360,Alta Floresta,-9.88,-56.09,77.47,31,0,4.32,1599964712,BR
361,Mayumba,-3.43,10.66,73.76,87,59,5.19,1599964713,GA
362,Liberal,37.04,-100.92,71.6,46,1,4.7,1599964713,US
363,Prainha,-1.8,-53.48,79.12,64,11,3.33,1599964713,BR
364,Port Blair,11.67,92.75,84.52,71,100,6.69,1599964671,IN
365,Tangier,35.78,-5.81,75.2,69,100,2.24,1599964714,MA
366,Omsukchan,62.53,155.8,49.37,57,68,16.15,1599964715,RU
367,Eydhafushi,5.1,73.07,82.06,78,100,11.61,1599964715,MV
368,Nagato,34.38,131.2,77.77,65,75,8.05,1599964716,JP
369,Boralday,43.36,76.86,59.0,51,20,4.47,1599964716,KZ
370,Kolda,12.88,-14.95,73.63,97,100,3.71,1599964717,SN
371,Rome,43.21,-75.46,64.13,68,75,5.82,1599964717,US
372,Santa Cruz de la Sierra,-17.8,-63.17,77.0,78,0,6.93,1599964717,BO
373,Kaili,-3.46,120.21,77.29,61,75,4.88,1599964718,ID
374,Finale Ligure,44.17,8.34,77.31,53,5,11.41,1599964718,IT
375,Karaton,-6.34,106.1,85.05,66,20,5.82,1599964718,ID
376,Ambilobe,-13.2,49.05,67.95,78,10,4.27,1599964719,MG
377,Kavaratti,10.57,72.64,81.41,81,100,15.84,1599964719,IN
378,Atlantic City,39.36,-74.42,65.44,82,40,5.82,1599964561,US
379,Pitimbu,-7.47,-34.81,73.4,83,20,4.7,1599964720,BR
380,Punta Alta,-38.88,-62.07,52.41,46,4,10.42,1599964720,AR
381,Pisco,-13.7,-76.22,60.89,87,20,5.82,1599964721,PE
382,Obando,14.72,120.93,86.0,74,40,6.93,1599964721,PH
383,Ponta Delgada,37.73,-25.67,68.0,88,75,5.82,1599964721,PT
384,Beeville,28.4,-97.75,82.74,78,1,3.36,1599964722,US
385,Matara,5.95,80.54,80.65,83,100,10.78,1599964722,LK
386,Chiknāyakanhalli,13.42,76.62,70.12,89,100,6.53,1599964722,IN
387,Rawson,-43.3,-65.1,50.38,45,0,20.45,1599964723,AR
388,Biak,-0.91,122.88,81.43,75,78,9.35,1599964723,ID
389,Markova,48.68,24.41,59.16,75,14,4.14,1599964724,UA
390,Baykit,61.67,96.37,52.77,79,99,2.39,1599964724,RU
391,Matagami,49.75,-77.63,51.8,87,90,12.75,1599964724,CA
392,Belmonte,-15.86,-38.88,75.2,73,40,12.75,1599964725,BR
393,Maniitsoq,65.42,-52.9,36.59,74,0,12.39,1599964725,GL
394,Springdale,36.19,-94.13,67.53,100,1,2.82,1599964624,US
395,Sibu,2.3,111.82,75.07,94,40,3.36,1599964726,MY
396,Fortuna,40.6,-124.16,55.31,100,90,4.7,1599964726,US
397,Tommot,58.96,126.29,71.69,57,75,2.19,1599964726,RU
398,Ekhabi,53.51,142.97,64.15,46,0,1.99,1599964727,RU
399,Harper,4.38,-7.72,75.76,91,99,8.55,1599964727,LR
400,Avarua,-21.21,-159.78,80.6,83,0,8.05,1599964727,CK
401,Buluang,13.31,123.34,88.7,63,77,2.46,1599964728,PH
402,Araguari,-18.65,-48.19,73.4,25,0,6.93,1599964614,BR
403,Axum,14.12,38.72,57.2,80,34,2.24,1599964728,ET
404,Beisfjord,68.38,17.6,39.61,100,99,10.29,1599964729,NO
405,Ugoofaaru,5.67,73.0,82.02,79,100,11.61,1599964729,MV
406,Dunedin,-45.87,170.5,56.5,60,100,1.99,1599964729,NZ
407,Muyezerskiy,63.93,31.65,51.17,95,100,10.25,1599964730,RU
408,Port Macquarie,-31.43,152.92,75.47,55,100,9.62,1599964730,AU
409,Bandarbeyla,9.49,50.81,80.17,67,26,19.91,1599964731,SO
410,Gravdal,68.12,13.5,50.41,72,3,14.7,1599964731,NO
411,Tahoua,14.89,5.27,84.97,53,11,6.13,1599964731,NE
412,Lagoa,39.05,-27.98,70.61,73,0,6.69,1599964732,PT
413,Nicoya,10.15,-85.45,77.0,94,75,8.05,1599964732,CR
414,Andros Town,24.7,-77.77,82.4,83,75,5.82,1599964456,BS
415,Kodinsk,58.69,99.18,54.99,62,39,5.39,1599964732,RU
416,Ushtobe,45.25,77.98,65.43,47,62,7.67,1599964733,KZ
417,Praia da Vitória,38.73,-27.07,66.54,88,20,1.9,1599964733,PT
418,Owando,-0.48,15.9,70.02,96,100,2.91,1599964734,CG
419,Williams Lake,52.14,-122.14,66.2,32,90,8.05,1599964734,CA
420,Nanortalik,60.14,-45.24,37.9,75,50,1.05,1599964734,GL
421,São Filipe,14.9,-24.5,79.07,84,100,20.69,1599964735,CV
422,Lata,40.16,-8.33,68.0,55,78,1.95,1599964735,PT
423,Patan,27.67,85.33,69.8,100,75,3.36,1599964735,NP
424,Codrington,-38.27,141.97,57.87,63,0,14.32,1599964736,AU
425,Lavrentiya,65.58,-171.0,44.82,72,85,8.75,1599964736,RU
426,Polis,35.04,32.43,75.2,78,0,5.82,1599964736,CY
427,Fes,34.04,-5.0,71.6,68,100,2.24,1599964737,MA
428,Haines Junction,60.75,-137.51,44.44,59,77,3.91,1599964737,CA
429,Kuchinda,21.73,84.35,80.6,88,40,4.7,1599964738,IN
430,Ampanihy,-24.7,44.75,67.21,80,30,12.39,1599964738,MG
431,San Patricio,19.22,-104.7,79.57,83,2,2.55,1599964739,MX
432,Sādri,25.18,73.43,85.89,57,15,0.29,1599964739,IN
433,Hanchuan,30.65,113.77,77.0,73,40,2.24,1599964739,CN
434,Te Anau,-45.42,167.72,49.19,89,100,8.08,1599964740,NZ
435,Enid,36.4,-97.88,69.67,100,1,3.36,1599964639,US
436,Urengoy,65.97,78.37,55.99,73,52,17.38,1599964740,RU
437,Boquira,-12.82,-42.73,65.88,67,0,7.47,1599964741,BR
438,Bereket,39.24,55.52,70.7,24,0,5.53,1599964741,TM
439,Ponta do Sol,32.67,-17.1,64.81,88,20,4.56,1599964741,PT
440,Flinders,-34.58,150.86,75.15,41,100,10.0,1599964742,AU
441,Severo-Kuril'sk,50.68,156.12,51.33,81,80,23.76,1599964742,RU
442,Souillac,-20.52,57.52,68.0,88,40,2.24,1599964743,MU
443,Barra de Tecoanapa,16.52,-98.75,82.11,79,100,3.49,1599964743,MX
444,Zeya,53.75,127.27,73.9,51,0,2.55,1599964744,RU
445,Kamenka,51.32,42.77,48.11,72,0,3.74,1599964744,RU
446,Airai,-8.93,125.41,76.05,35,93,7.4,1599964745,TL
447,Vestmannaeyjar,63.44,-20.27,48.36,78,100,20.69,1599964745,IS
448,Ambon City,-3.7,128.18,84.2,74,40,5.82,1599964564,ID
449,Unity,52.45,-109.17,44.01,78,100,5.7,1599964746,CA
450,Eyl,7.98,49.82,80.38,65,93,20.54,1599964746,SO
451,Kovdor,67.57,30.48,41.65,98,100,1.5,1599964747,RU
452,Álamo,20.92,-97.68,74.79,90,100,1.79,1599964747,MX
453,Aracati,-4.56,-37.77,76.33,68,56,12.08,1599964747,BR
454,Port Hardy,50.7,-127.42,57.2,87,75,3.36,1599964748,CA
455,Barcelos,41.54,-8.62,73.92,60,100,5.82,1599964645,PT
456,Puerto del Rosario,28.5,-13.86,73.4,83,20,6.93,1599964748,ES
457,Camacha,33.08,-16.33,69.8,88,40,5.73,1599964749,PT
458,Kortkeros,61.81,51.58,42.8,100,90,4.47,1599964749,RU
459,Mercedes,-34.65,-59.43,50.02,88,21,6.58,1599964750,AR
460,Saint-Pierre,-21.34,55.48,58.59,59,40,8.05,1599964750,RE
461,Manga,11.66,-1.07,75.92,81,10,5.88,1599964750,BF
462,Ozark,37.02,-93.21,64.89,93,0,2.93,1599964751,US
463,Mestia,43.05,42.73,54.0,59,0,2.93,1599964751,GE
464,Sciacca,37.51,13.09,67.05,69,82,5.01,1599964751,IT
465,Bafoulabé,13.81,-10.83,75.69,93,55,2.91,1599964752,ML
466,‘Āhuimanu,21.44,-157.84,83.26,61,20,10.29,1599964752,US
467,Tutóia,-2.76,-42.27,79.7,78,70,13.2,1599964753,BR
468,Bonavista,48.65,-53.11,54.16,76,0,18.95,1599964753,CA
469,Murashi,59.4,48.96,44.83,94,58,7.65,1599964753,RU
470,Uthal,25.81,66.62,86.54,65,67,7.18,1599964754,PK
471,Uyskoye,54.38,60.0,47.88,82,11,5.46,1599964754,RU
472,Shinjō,38.76,140.3,78.78,73,75,2.24,1599964755,JP
473,Vao,-22.67,167.48,68.0,81,95,22.08,1599964755,NC
474,Black River,18.03,-77.85,82.94,79,20,4.7,1599964569,JM
475,Nkowakowa,-23.89,30.29,51.8,66,0,9.17,1599964755,ZA
476,San Luis,-33.3,-66.34,55.81,46,0,5.1,1599964756,AR
477,Oddur,4.12,43.89,71.62,79,99,15.77,1599964756,SO
478,Moerai,-22.43,-151.33,75.07,84,0,13.67,1599964757,PF
479,Bukama,-9.2,25.85,73.87,36,99,3.29,1599964757,CD
480,Linxia Chengguanzhen,35.6,103.21,57.78,71,100,3.83,1599964757,CN
481,Pochutla,15.74,-96.47,75.99,92,100,5.79,1599964758,MX
482,Oriximiná,-1.77,-55.87,82.96,52,10,4.52,1599964758,BR
483,Serebryansk,49.69,83.29,46.4,70,50,2.24,1599964759,KZ
484,Auki,-8.77,160.7,85.28,70,10,3.96,1599964759,SB
485,Hinesville,31.85,-81.6,77.31,88,1,5.82,1599964759,US
486,Guymon,36.68,-101.48,69.8,46,1,7.92,1599964760,US
487,Sydney,-33.87,151.21,73.36,53,94,3.0,1599964760,AU
488,Sistranda,63.73,8.83,50.0,93,75,28.86,1599964761,NO
489,Jiangyou,31.77,104.72,70.12,81,98,3.51,1599964761,CN
490,Tiznit Province,29.58,-9.5,69.51,66,100,1.81,1599964761,MA
491,Vila Franca do Campo,37.72,-25.43,68.0,88,75,5.82,1599964762,PT
492,Podor,16.65,-14.96,83.44,70,5,14.61,1599964762,MR
493,Sandpoint,48.28,-116.55,59.34,72,90,0.89,1599964763,US
494,Baishishan,43.58,127.57,64.74,59,91,8.46,1599964763,CN
495,Darnah,32.77,22.64,74.17,74,0,6.17,1599964764,LY
496,Tsimmerbude,54.67,20.13,59.52,82,40,8.95,1599964764,RU
497,Bealanana,-14.55,48.73,54.88,91,51,3.65,1599964764,MG
498,Garoowe,8.41,48.48,78.35,62,80,19.17,1599964765,SO
499,Eyemouth,55.87,-2.09,58.98,90,100,7.0,1599964766,GB
500,São José da Coroa Grande,-8.9,-35.15,73.4,81,11,11.43,1599964766,BR
501,Berlevåg,70.86,29.09,46.69,78,100,6.06,1599964766,NO
502,Abonnema,4.71,6.79,73.29,95,100,4.5,1599964767,NG
503,Sisimiut,66.94,-53.67,35.78,79,15,4.9,1599964767,GL
504,Redlands,34.06,-117.18,77.22,25,5,4.7,1599964728,US
505,Timrå,62.49,17.33,44.51,100,0,2.24,1599964768,SE
506,Yangi Marg`ilon,40.43,71.72,62.6,42,0,2.24,1599964768,UZ
507,São Benedito do Rio Preto,-3.33,-43.53,75.92,86,67,5.23,1599964768,BR
508,Mareeba,-17.0,145.43,69.93,87,81,5.01,1599964769,AU
509,Krasnosel'kup,65.7,82.47,55.6,79,100,16.84,1599964769,RU
510,Nome,64.5,-165.41,52.32,76,75,13.87,1599964769,US
511,Karasjok,69.47,25.51,44.6,93,100,4.7,1599964770,NO
512,Yerbogachën,61.28,108.01,54.34,60,0,5.32,1599964770,RU
513,Pimenteiras,-6.25,-41.42,73.6,43,0,5.79,1599964770,BR
514,Maun,-19.98,23.42,62.6,39,0,4.7,1599964771,BW
515,Chicama,-7.84,-79.15,60.48,82,24,4.32,1599964771,PE
516,Staryy Nadym,65.61,72.68,52.93,86,99,18.32,1599964772,RU
517,Inhambane,-23.86,35.38,68.25,82,36,4.76,1599964772,MZ
518,Spirit River,55.78,-118.84,47.5,66,90,9.17,1599964772,CA
519,Naze,28.37,129.48,82.4,88,75,6.93,1599964773,JP
520,Lesnoy,57.62,63.08,46.65,91,48,7.34,1599964773,RU
521,São Félix do Xingu,-6.64,-51.99,75.69,38,74,1.57,1599964773,BR
522,Lindi,-10.0,39.72,69.8,94,20,9.17,1599964774,TZ
523,Albury,-36.08,146.92,56.8,100,90,4.7,1599964775,AU
524,Wau,7.7,28.0,70.93,94,100,3.91,1599964775,SS
525,Esim,4.87,-2.24,74.57,92,70,6.87,1599964775,GH
526,Pohrebyshche,49.49,29.26,55.44,48,2,6.35,1599964776,UA
527,Bandrele,-12.91,45.19,77.0,83,75,11.41,1599964776,YT
528,Mineros,-17.12,-63.23,77.0,78,32,6.93,1599964776,BO
529,Cutlerville,42.84,-85.66,68.23,94,90,8.05,1599964624,US
530,Hambantota,6.12,81.12,78.8,100,40,6.93,1599964777,LK
531,Mount Gambier,-37.83,140.77,57.2,62,75,16.11,1599964777,AU
532,Gamba,-2.65,10.0,74.43,86,99,7.0,1599964778,GA
533,Bettiah,26.8,84.5,86.29,74,0,7.07,1599964778,IN
534,Adré,13.47,22.2,72.0,84,89,4.34,1599964779,TD
535,Vila,42.03,-8.16,66.99,57,95,7.0,1599964779,PT
536,São Gabriel da Cachoeira,-0.13,-67.09,77.47,78,57,0.67,1599964779,BR
537,Córdoba,-31.41,-64.18,54.61,49,0,8.05,1599964587,AR
538,Severobaykal'sk,55.65,109.32,52.2,93,100,1.68,1599964780,RU
539,Międzyrzecz,52.44,15.58,54.72,92,95,5.35,1599964780,PL
540,Comiso,36.95,14.61,69.06,88,20,3.36,1599964781,IT
541,Cutervo,-6.38,-78.82,51.17,100,22,3.78,1599964781,PE
542,Port Antonio,18.18,-76.46,80.11,83,40,8.05,1599964781,JM
543,Barraute,48.43,-77.63,53.78,93,90,9.17,1599964782,CA
544,Lakes Entrance,-37.88,147.98,62.01,75,98,1.01,1599964782,AU
545,Lar,26.2,83.97,85.95,74,100,5.64,1599964782,IN
546,Brae,60.4,-1.35,51.8,93,14,16.11,1599964783,GB
547,Seoul,37.57,126.98,73.94,56,1,5.82,1599964652,KR
548,Solnechnyy,50.72,136.63,71.04,54,78,3.53,1599964783,RU
549,Karratha,-20.74,116.85,93.85,21,0,20.02,1599964784,AU
550,Leh,34.17,77.58,54.88,39,0,4.25,1599964784,IN
551,Macia,-25.03,33.1,60.6,97,1,1.57,1599964785,MZ
552,Soligalich,59.08,42.29,50.79,84,100,9.98,1599964785,RU
553,Kailua,21.4,-157.74,80.96,61,20,10.29,1599964583,US
554,Manta,-0.95,-80.73,73.4,88,75,10.29,1599964736,EC
555,Kohima,25.67,94.12,75.13,75,79,1.19,1599964786,IN
556,Bogorodskoye,56.55,37.88,52.25,78,84,12.75,1599964786,RU
557,Northam,51.03,-4.22,55.35,94,82,5.99,1599964787,GB
558,Edéa,3.8,10.13,72.66,97,100,0.74,1599964787,CM
559,Kikwit,-5.04,18.82,74.89,68,19,1.52,1599964787,CD
560,Egvekinot,66.32,-179.17,46.6,63,100,14.14,1599964788,RU
561,Ibaiti,-23.85,-50.19,66.94,46,1,3.85,1599964619,BR
562,Novikovo,51.15,37.89,48.76,55,0,4.79,1599964788,RU
563,Mirzāpur,25.15,82.58,82.4,88,40,3.36,1599964788,IN
564,Lere,10.39,8.57,68.4,88,100,0.38,1599964789,NG
565,Elizabeth City,36.29,-76.25,67.93,91,92,6.49,1599964544,US
566,Karpathos,35.51,27.21,75.2,83,2,12.75,1599964789,GR
567,Guamo,4.03,-74.97,79.2,66,96,1.72,1599964790,CO
568,Ossora,59.24,163.07,45.48,76,100,26.98,1599964790,RU
569,Chapais,49.78,-74.85,55.4,71,90,11.41,1599964790,CA
570,Central Point,42.38,-122.92,66.2,42,90,3.74,1599964514,US
571,Cap-aux-Meules,47.38,-61.86,53.6,81,5,4.7,1599964494,CA
572,Fortuna Foothills,32.66,-114.41,90.84,15,1,4.7,1599964718,US
573,Cabra,37.47,-4.44,72.3,43,98,2.24,1599964791,ES
574,Vargashi,55.36,65.85,53.04,76,68,2.93,1599964792,RU
