,City,Latitude,Longitude,Max Temp,Humidity,Cloudiness,Wind Speed,Date,Country
0,Jánossomorja,47.79,17.14,80.01,55,93,2.04,1599832774,HU
1,Hamilton,39.18,-84.53,66.79,82,90,10.29,1599832519,US
2,Kodinsk,58.69,99.18,48.43,84,100,1.81,1599832774,RU
3,Provost,52.35,-110.27,56.7,56,0,6.67,1599832775,CA
4,Hobart,-42.88,147.33,50.16,93,90,14.99,1599832516,AU
5,Coquimbo,-29.95,-71.34,55.4,76,40,3.36,1599832775,CL
6,Punta Arenas,-53.15,-70.92,39.09,80,2,10.29,1599832775,CL
7,Kapaa,22.08,-159.32,73.56,69,1,12.75,1599832775,US
8,Carauari,-4.88,-66.9,80.24,75,89,3.24,1599832776,BR
9,Mataura,-46.19,168.86,36.0,91,0,3.0,1599832776,NZ
10,Castro,-24.79,-50.01,79.48,50,48,4.76,1599832776,BR
11,Cape Town,-33.93,18.42,73.76,49,100,6.93,1599832490,ZA
12,Alta Floresta,-9.88,-56.09,99.45,16,8,6.2,1599832776,BR
13,Rikitea,-23.12,-134.97,73.04,88,85,12.15,1599832777,PF
14,Sept-Îles,50.2,-66.38,49.78,81,20,5.23,1599832711,CA
15,East London,-33.02,27.91,60.8,100,90,14.99,1599832555,ZA
16,Jamestown,42.1,-79.24,58.1,93,90,8.05,1599832590,US
17,Riviere-au-Renard,49.0,-64.4,51.8,71,20,11.41,1599832781,CA
18,Havre-St-Pierre,50.23,-63.6,50.0,81,1,4.7,1599832781,CA
19,Esperance,-33.87,121.9,57.2,82,90,5.82,1599832781,AU
20,Nanortalik,60.14,-45.24,39.51,65,0,5.88,1599832782,GL
21,Shakawe,-18.37,21.85,88.41,12,0,10.92,1599832782,BW
22,Puerto Ayora,-0.74,-90.35,66.99,92,99,7.0,1599832782,EC
23,Burgersdorp,-31.0,26.33,79.63,15,0,9.75,1599832782,ZA
24,Bambous Virieux,-20.34,57.76,73.2,83,75,16.11,1599832782,MU
25,Tasiilaq,65.61,-37.64,35.6,80,75,4.7,1599832783,GL
26,Carnarvon,-24.87,113.63,66.2,72,0,21.92,1599832783,AU
27,Muroto-misakicho,33.28,134.15,80.71,79,0,4.41,1599832783,JP
28,Voyvozh,62.89,54.96,50.99,91,95,8.1,1599832783,RU
29,Avarua,-21.21,-159.78,77.0,94,87,5.82,1599832784,CK
30,Mount Gambier,-37.83,140.77,55.4,93,90,5.82,1599832784,AU
31,Jalingo,8.88,11.37,84.72,68,95,5.17,1599832784,NG
32,Bluff,-46.6,168.33,36.0,91,0,3.0,1599832788,NZ
33,Kavieng,-2.57,150.8,82.26,77,11,8.19,1599832788,PG
34,Vaini,-21.2,-175.2,69.8,83,20,5.82,1599832788,TO
35,Kirkland Lake,48.14,-80.04,46.4,87,1,4.7,1599832788,CA
36,Iqaluit,63.75,-68.51,39.09,75,75,14.99,1599832512,CA
37,Verkhoyansk,67.54,133.38,45.77,61,28,2.01,1599832789,RU
38,Yendi,9.44,-0.01,79.68,82,99,4.79,1599832789,GH
39,Guozhen,34.37,107.36,74.68,55,100,1.14,1599832789,CN
40,Busselton,-33.65,115.33,46.45,71,0,5.06,1599832789,AU
41,Ushuaia,-54.8,-68.3,39.2,64,10,5.82,1599832740,AR
42,Prince Rupert,54.32,-130.32,50.0,100,1,2.24,1599832790,CA
43,El Porvenir,13.76,-87.35,71.6,88,40,4.7,1599832790,HN
44,Tambura,5.6,27.47,81.79,82,100,0.89,1599832790,SS
45,Saint Paul Harbor,57.79,-152.41,39.2,58,1,6.93,1599832790,US
46,Port Augusta,-32.5,137.77,67.62,31,0,11.41,1599832790,AU
47,Cervia,44.27,12.34,80.69,54,20,8.05,1599832791,IT
48,Port Alfred,-33.59,26.89,64.0,79,100,25.55,1599832791,ZA
49,Fortuna,40.6,-124.16,49.46,100,75,8.05,1599832791,US
50,Tuktoyaktuk,69.45,-133.04,39.2,86,90,13.87,1599832795,CA
51,Saint-Philippe,-21.36,55.77,70.2,69,90,3.36,1599832795,RE
52,Kavaratti,10.57,72.64,81.77,80,100,21.74,1599832795,IN
53,Upernavik,72.79,-56.15,32.27,86,63,5.91,1599832795,GL
54,Bengkulu,-3.8,102.27,76.84,88,100,6.22,1599832796,ID
55,Boyuibe,-20.42,-63.28,78.8,44,57,9.17,1599832796,BO
56,Bethel,41.37,-73.41,67.91,72,1,11.41,1599832796,US
57,Chokurdakh,70.63,147.92,44.87,70,0,7.27,1599832796,RU
58,Christchurch,-43.53,172.63,31.77,92,0,3.36,1599832770,NZ
59,Pisco,-13.7,-76.22,60.46,87,90,2.24,1599832544,PE
60,New Norfolk,-42.78,147.06,49.91,83,100,2.35,1599832797,AU
61,Sitka,57.05,-135.33,51.8,66,40,3.36,1599832797,US
62,Buala,-8.14,159.59,79.63,81,29,6.49,1599832797,SB
63,Namatanai,-3.67,152.43,79.68,82,8,5.95,1599832797,PG
64,Hilo,19.73,-155.09,68.61,73,20,5.82,1599832798,US
65,Caucaia,-3.74,-38.65,82.2,65,75,17.22,1599832798,BR
66,George Town,5.41,100.34,81.61,88,40,4.7,1599832683,MY
67,Butaritari,3.07,172.79,81.82,73,100,11.74,1599832801,KI
68,Kaitangata,-46.28,169.85,42.01,76,1,1.99,1599832802,NZ
69,Kindu,-2.95,25.95,83.01,65,99,4.38,1599832805,CD
70,Lorengau,-2.02,147.27,82.18,79,41,8.39,1599832811,PG
71,Sal Rei,16.18,-22.92,86.0,70,75,10.29,1599832812,CV
72,Hong Kong,22.29,114.16,84.04,70,100,9.22,1599832816,HK
73,Saldanha,-33.01,17.94,84.2,35,60,3.36,1599832817,ZA
74,Thompson,55.74,-97.86,42.8,93,90,3.36,1599832818,CA
75,Pacific Grove,36.62,-121.92,53.89,100,90,4.7,1599832601,US
76,Faanui,-16.48,-151.75,77.49,80,1,12.46,1599832819,PF
77,Kenai,60.55,-151.26,32.32,75,90,4.7,1599832823,US
78,Agadez,19.75,10.25,103.68,8,0,14.0,1599832823,NE
79,Lujiang,31.26,117.28,77.0,78,6,4.47,1599832824,CN
80,Gazli,40.13,63.45,79.39,22,0,12.41,1599832825,UZ
81,Ribeira Grande,38.52,-28.7,75.2,73,20,6.93,1599832825,PT
82,Santa Vitória do Palmar,-33.52,-53.37,64.08,65,0,5.06,1599832825,BR
83,Aklavik,68.22,-135.01,35.6,100,75,3.36,1599832826,CA
84,Richards Bay,-28.78,32.04,72.18,64,0,8.19,1599832826,ZA
85,Vestmanna,62.16,-7.17,48.2,93,32,20.8,1599832829,FO
86,Bumba,2.18,22.47,78.1,90,100,2.3,1599832829,CD
87,Arraial do Cabo,-22.97,-42.03,77.0,78,40,13.87,1599832830,BR
88,Kiryat Gat,31.61,34.76,89.02,54,0,3.0,1599832830,IL
89,Chui,-33.7,-53.46,63.32,69,0,5.91,1599832830,UY
90,Kuril'sk,45.23,147.88,51.91,77,83,8.05,1599832831,RU
91,Clyde River,70.47,-68.59,35.6,80,90,2.24,1599832831,CA
92,Lebu,-37.62,-73.65,50.29,66,78,4.34,1599832831,CL
93,Lüderitz,-26.65,15.16,74.52,34,0,11.95,1599832611,NA
94,Ponta do Sol,32.67,-17.1,71.94,65,40,8.05,1599832832,PT
95,Bintulu,3.17,113.03,77.0,94,40,5.82,1599832832,MY
96,Marsh Harbour,26.54,-77.06,81.34,81,100,22.15,1599832811,BS
97,Rechka Vydrino,51.48,104.85,46.92,91,100,8.25,1599832833,RU
98,Itarema,-2.92,-39.92,87.31,47,0,16.71,1599832836,BR
99,Cidreira,-30.18,-50.21,65.41,75,0,17.63,1599832837,BR
100,Port Elizabeth,-33.92,25.57,62.01,87,85,8.99,1599832832,ZA
101,Saskylakh,71.92,114.08,45.43,83,100,5.08,1599832837,RU
102,Lima Duarte,-21.84,-43.79,78.8,34,0,2.24,1599832838,BR
103,Egvekinot,66.32,-179.17,40.77,98,91,1.88,1599832838,RU
104,Camargo,27.67,-105.17,65.1,78,100,5.79,1599832838,MX
105,Marawi,8.0,124.29,75.0,94,100,4.0,1599832839,PH
106,Morón,-34.65,-58.62,63.27,55,0,9.17,1599832558,AR
107,Barranca,-10.75,-77.77,60.57,80,95,7.05,1599832839,PE
108,Plettenberg Bay,-34.05,23.37,65.93,76,37,20.6,1599832839,ZA
109,Atuona,-9.8,-139.03,78.44,79,5,20.2,1599832840,PF
110,Korla,41.76,86.15,73.38,21,0,7.58,1599832840,CN
111,Tiksi,71.69,128.87,49.01,60,97,9.55,1599832844,RU
112,Okakarara,-20.58,17.43,87.35,12,0,13.2,1599832844,NA
113,Barrow,71.29,-156.79,35.6,80,90,25.28,1599832845,US
114,Mossamedes,-15.2,12.15,72.77,74,11,15.41,1599832845,AO
115,São Filipe,14.9,-24.5,83.79,74,65,8.05,1599832845,CV
116,Gambēla,8.25,34.58,83.01,85,21,1.05,1599832846,ET
117,Geraldton,-28.77,114.6,62.6,72,40,17.22,1599832846,AU
118,Port Shepstone,-30.74,30.45,67.24,83,77,13.85,1599832846,ZA
119,La Asuncion,11.03,-63.86,84.2,79,0,10.29,1599832847,VE
120,Bredasdorp,-34.53,20.04,62.6,77,100,24.16,1599832850,ZA
121,Albany,42.6,-73.97,57.02,86,93,7.61,1599832614,US
122,Grindavik,63.84,-22.43,51.8,76,40,14.99,1599832851,IS
123,Khatanga,71.97,102.5,49.82,65,99,8.19,1599832851,RU
124,Aquiraz,-3.9,-38.39,82.4,65,75,17.22,1599832851,BR
125,Mahébourg,-20.41,57.7,73.4,83,75,16.11,1599832852,MU
126,West Richland,46.3,-119.36,53.98,93,1,3.36,1599832853,US
127,Rio Grande,-32.03,-52.1,60.01,92,0,10.29,1599832822,BR
128,Indiana,40.0,-86.25,64.26,93,90,8.05,1599832853,US
129,Evensk,61.95,159.23,48.22,72,95,17.87,1599832853,RU
130,Galesong,-5.32,119.37,80.6,57,20,6.93,1599832854,ID
131,Oistins,13.07,-59.53,86.0,66,20,9.17,1599832858,BB
132,Pinhão,-25.7,-51.66,79.95,44,64,3.56,1599832858,BR
133,Fort Nelson,58.81,-122.7,44.6,87,75,9.17,1599832859,CA
134,Godalming,51.18,-0.62,65.43,59,87,10.29,1599832859,GB
135,Severnyy,50.68,36.55,68.0,32,0,8.95,1599832859,RU
136,San Carlos,9.66,-68.58,84.67,71,18,2.24,1599832860,VE
137,Praia,14.92,-23.51,82.4,74,90,8.05,1599832804,CV
138,Mount Isa,-20.73,139.5,78.8,21,0,8.05,1599832860,AU
139,Torbay,47.67,-52.73,57.51,93,90,6.93,1599832740,CA
140,Yellowknife,62.46,-114.35,42.57,93,90,8.05,1599832729,CA
141,Cape Canaveral,28.41,-80.6,82.06,88,1,5.82,1599832569,US
142,Gizo Government Station,-8.1,156.84,81.27,78,10,9.24,1599832861,SB
143,Hermanus,-34.42,19.23,64.99,80,100,7.0,1599832864,ZA
144,Tsimmerbude,54.67,20.13,65.23,55,20,13.42,1599832864,RU
145,Severo-Kuril'sk,50.68,156.12,48.92,86,62,12.59,1599832864,RU
146,Tessalit,20.2,1.01,104.5,14,5,6.62,1599832865,ML
147,Key West,24.56,-81.78,86.0,70,75,9.17,1599832710,US
148,Nikolskoye,59.7,30.79,57.06,62,40,13.42,1599832865,RU
149,Baruun-Urt,46.68,113.28,55.24,74,6,9.57,1599832866,MN
150,Klyuchi,52.27,79.17,54.57,58,0,8.05,1599832866,RU
151,Lashio,22.93,97.75,72.01,97,100,2.04,1599832866,MM
152,Clyde,41.3,-82.98,62.02,83,34,11.92,1599832567,US
153,Arrondissement de Soissons,49.33,3.33,79.95,54,89,1.99,1599832867,FR
154,Ishigaki,24.34,124.16,83.93,76,88,13.09,1599832867,JP
155,Hofn,64.25,-15.21,50.0,87,90,5.82,1599832867,IS
156,Cherskiy,68.75,161.3,39.83,81,6,1.79,1599832867,RU
157,Taoudenni,22.68,-3.98,111.97,9,100,4.41,1599832868,ML
158,Katsuura,35.13,140.3,80.71,88,75,5.82,1599832868,JP
159,Mahina,-17.51,-149.49,72.18,83,20,2.24,1599832871,PF
160,Edd,13.93,41.69,93.94,54,51,10.94,1599832872,ER
161,Airai,-8.93,125.41,55.24,86,60,3.51,1599832872,TL
162,Trairi,-3.28,-39.27,86.81,48,17,16.02,1599832872,BR
163,Atambua,-9.11,124.89,68.47,88,69,6.4,1599832873,ID
164,Kloulklubed,7.04,134.26,78.8,88,40,3.36,1599832873,PW
165,Umm Kaddadah,13.6,26.69,90.9,40,100,4.29,1599832873,SD
166,Wanaka,-44.7,169.15,35.01,74,0,3.47,1599832873,NZ
167,Guerrero Negro,27.98,-114.06,75.22,51,0,4.85,1599832874,MX
168,Khovd,48.01,91.64,45.54,54,61,0.6,1599832874,MN
169,Santa Isabel,-23.32,-46.22,77.61,61,77,2.1,1599832874,BR
170,Sítio Novo do Tocantins,-5.52,-47.46,84.2,66,20,5.82,1599832874,BR
171,Onega,63.91,38.14,53.92,76,0,11.52,1599832875,RU
172,Khuzhir,53.19,107.34,52.11,79,100,7.16,1599832875,RU
173,Elverum,60.88,11.56,55.99,65,99,3.0,1599832879,NO
174,Ibrā’,22.69,58.53,99.43,11,100,13.38,1599832879,OM
175,Santana do Livramento,-30.89,-55.53,67.59,77,43,2.51,1599832879,BR
176,Ereymentau,51.62,73.1,56.88,47,57,10.71,1599832879,KZ
177,Oulu,65.01,25.47,53.47,66,75,11.41,1599832880,FI
178,Sioux Lookout,50.1,-91.92,50.0,87,5,4.7,1599832880,CA
179,Níjar,36.97,-2.21,81.84,65,6,6.93,1599832881,ES
180,Dikson,73.51,80.55,45.05,92,100,17.9,1599832881,RU
181,Qaanaaq,77.48,-69.36,27.34,94,100,11.54,1599832881,GL
182,Longyearbyen,78.22,15.64,44.6,75,40,5.82,1599832881,SJ
183,Envira,-7.3,-70.22,85.46,58,95,4.16,1599832881,BR
184,Avallon,47.48,3.9,80.2,31,0,5.35,1599832882,FR
185,Udachny,66.42,112.4,48.2,66,90,4.47,1599832882,RU
186,Serpa,37.95,-7.6,89.6,29,98,5.82,1599832809,PT
187,Fairbanks,64.84,-147.72,34.61,95,1,4.52,1599832885,US
188,Leningradskiy,69.38,178.42,39.16,90,56,4.36,1599832886,RU
189,Mayumba,-3.43,10.66,78.12,73,82,9.66,1599832886,GA
190,Taksimo,56.34,114.88,58.75,83,100,0.85,1599832886,RU
191,Shangrao,28.45,117.97,72.81,92,58,1.34,1599832887,CN
192,Muravlenko,63.79,74.52,57.25,73,6,13.35,1599832887,RU
193,Salamanca,40.83,-6.0,85.69,21,42,4.7,1599832878,ES
194,Chiredzi,-21.05,31.67,80.73,30,0,10.4,1599832888,ZW
195,Necochea,-38.55,-58.74,54.0,67,0,11.01,1599832782,AR
196,Vernon,50.26,-119.27,47.46,87,1,4.7,1599832811,CA
197,Souillac,-20.52,57.52,73.4,83,75,16.11,1599832889,MU
198,Saint-Pierre,-21.34,55.48,70.99,69,90,3.36,1599832892,RE
199,Kahului,20.89,-156.47,73.09,74,1,12.75,1599832824,US
200,Baykit,61.67,96.37,48.31,77,100,1.63,1599832892,RU
201,Codrington,-38.27,141.97,54.18,98,100,8.57,1599832893,AU
202,Gore,-46.1,168.94,36.0,91,0,1.99,1599832893,NZ
203,Severiano Melo,-5.78,-37.96,91.85,31,0,10.98,1599832893,BR
204,Nizwá,22.93,57.53,101.1,9,71,13.38,1599832817,OM
205,Nador,35.17,-2.93,80.46,69,20,8.05,1599832852,MA
206,Noumea,-22.28,166.46,64.4,72,90,3.36,1599832893,NC
207,Raja,8.46,25.68,80.2,87,100,2.82,1599832894,SS
208,Delaware,39.0,-75.5,74.77,100,90,10.29,1599832894,US
209,Shakhun'ya,57.68,46.61,52.52,89,100,14.18,1599832895,RU
210,Bongandanga,1.5,21.05,82.62,69,52,4.7,1599832895,CD
211,Salalah,17.02,54.09,84.2,74,20,9.17,1599832895,OM
212,Tauţ,46.28,21.92,82.44,32,98,6.93,1599832896,RO
213,Rockport,28.02,-97.05,69.33,83,90,13.87,1599832896,US
214,Turukhansk,65.82,87.98,51.37,94,100,12.15,1599832896,RU
215,Yangi Marg`ilon,40.43,71.72,82.4,28,0,4.7,1599832899,UZ
216,Saint-Augustin,51.23,-58.65,49.28,69,99,8.7,1599832900,CA
217,Lander,42.83,-108.73,44.89,75,75,10.29,1599832900,US
218,Lagoa,39.05,-27.98,71.94,77,0,7.45,1599832901,PT
219,Pevek,69.7,170.31,40.78,92,63,0.07,1599832902,RU
220,Brae,60.4,-1.35,55.4,87,20,25.28,1599832902,GB
221,Inhambane,-23.86,35.38,78.01,65,2,11.99,1599832902,MZ
222,Peterhead,57.51,-1.8,62.17,63,75,14.99,1599832902,GB
223,Waitati,-45.75,170.57,42.53,71,0,8.99,1599832903,NZ
224,Kichmengskiy Gorodok,59.98,45.79,53.2,88,73,11.3,1599832906,RU
225,Novyy Rogachik,48.68,44.06,84.99,23,21,8.95,1599832906,RU
226,Hithadhoo,-0.6,73.08,82.47,77,100,12.62,1599832907,MV
227,Goma,-1.68,29.22,75.52,50,45,5.35,1599832907,CD
228,Ouégoa,-20.35,164.43,69.08,76,92,14.2,1599832907,NC
229,Berlevåg,70.86,29.09,51.8,71,14,10.29,1599832908,NO
230,Kendari,-3.94,122.5,74.32,85,99,3.67,1599832908,ID
231,Kudinovo,55.0,36.25,60.8,48,40,11.18,1599832908,RU
232,Rome,43.21,-75.46,56.37,76,90,6.93,1599832908,US
233,Chihuahua,28.5,-106.0,63.0,76,27,5.01,1599832663,MX
234,Kondinskoye,59.65,67.41,59.25,57,63,12.26,1599832909,RU
235,Madaoua,14.07,5.96,95.68,34,100,0.69,1599832909,NE
236,Tocopilla,-22.09,-70.2,64.62,48,1,3.13,1599832909,CL
237,Totness,5.88,-56.32,86.11,63,15,7.76,1599832910,SR
238,Mehamn,71.04,27.85,50.0,71,40,11.41,1599832910,NO
239,Port Keats,-14.25,129.55,76.01,86,31,3.49,1599832910,AU
240,Port Hedland,-20.32,118.57,75.2,83,0,8.05,1599832913,AU
241,Samarai,-10.62,150.67,75.38,76,31,10.87,1599832914,PG
242,Sandpoint,48.28,-116.55,45.9,93,1,1.86,1599832914,US
243,Denpasar,-8.65,115.22,78.8,100,40,9.17,1599832697,ID
244,Labuhan,-6.88,112.21,80.29,75,62,5.01,1599832914,ID
245,Ratnagiri,16.98,73.3,81.0,86,99,6.89,1599832915,IN
246,Anadyr,64.75,177.48,46.18,93,97,20.13,1599832915,RU
247,Paeroa,-37.37,175.67,43.68,63,0,8.01,1599832916,NZ
248,Bodden Town,19.28,-81.25,86.32,84,40,5.91,1599832916,KY
249,Constitución,-35.33,-72.42,52.3,51,0,11.05,1599832916,CL
250,Tuatapere,-46.13,167.68,36.0,91,0,1.99,1599832920,NZ
251,Melita,49.27,-101.0,52.0,56,0,8.01,1599832920,CA
252,Ormara,25.21,64.64,82.85,84,100,9.55,1599832920,PK
253,Mackay,-21.15,149.2,66.2,82,75,13.87,1599832921,AU
254,Merauke,-8.47,140.33,76.57,81,0,15.86,1599832868,ID
255,Gualaquiza,-3.4,-78.55,74.89,53,25,1.1,1599832922,EC
256,Bilma,18.69,12.92,104.31,13,97,15.43,1599832922,NE
257,Safford,32.83,-109.71,60.8,72,1,6.93,1599832922,US
258,Lebanon,36.21,-86.29,74.75,88,1,5.08,1599832732,US
259,Tumbes,-3.57,-80.44,73.87,73,42,5.82,1599832923,PE
260,Jaen,38.0,-3.5,91.99,28,4,4.0,1599832923,ES
261,Klaksvík,62.23,-6.59,48.2,93,3,20.8,1599832924,FO
262,Port Lincoln,-34.73,135.87,57.92,89,100,9.46,1599832927,AU
263,Lompoc,34.64,-120.46,52.52,93,90,5.06,1599832927,US
264,Kirakira,-10.45,161.92,77.58,81,55,6.93,1599832928,SB
265,Naze,28.37,129.48,80.6,88,40,4.7,1599832928,JP
266,Nome,64.5,-165.41,38.08,93,40,2.64,1599832929,US
267,Lubango,-14.92,13.49,83.93,12,0,6.67,1599832929,AO
268,Kantang,7.41,99.52,77.0,94,20,4.7,1599832929,TH
269,Morro Bay,35.37,-120.85,56.79,100,90,3.78,1599832805,US
270,Cabra,37.47,-4.44,93.0,25,100,6.51,1599832929,ES
271,Meulaboh,4.14,96.13,76.28,84,100,4.99,1599832930,ID
272,Wajima,37.4,136.9,75.65,86,100,18.1,1599832930,JP
273,Los Llanos de Aridane,28.66,-17.92,75.85,65,20,12.75,1599832930,ES
274,Bilibino,68.05,166.44,36.68,82,37,0.27,1599832931,RU
275,Les Escoumins,48.11,-69.02,46.04,82,5,5.17,1599832931,CA
276,Mushie,-3.02,16.9,85.6,58,69,7.78,1599832935,CD
277,Doha,25.29,51.53,97.86,60,0,9.17,1599832683,QA
278,Ostrovnoy,68.05,39.51,51.3,76,1,5.26,1599832935,RU
279,Boueni,-12.9,45.08,80.6,65,20,8.05,1599832935,YT
280,Oeiras,-7.03,-42.13,92.88,31,0,9.89,1599832936,BR
281,Ilulissat,69.22,-51.1,26.6,49,20,16.11,1599832646,GL
282,Guamúchil,25.47,-108.1,77.0,90,1,1.01,1599832902,MX
283,Takoradze,4.88,-1.76,79.99,78,100,11.34,1599832936,GH
284,Roald,62.58,6.13,54.55,58,75,18.34,1599832936,NO
285,Vila Franca do Campo,37.72,-25.43,71.6,83,75,6.93,1599832937,PT
286,Kismayo,-0.36,42.55,79.88,76,100,16.96,1599832937,SO
287,Hauterive,46.09,3.45,80.62,41,20,4.7,1599832937,FR
288,Lavrentiya,65.58,-171.0,43.39,84,83,5.01,1599832938,RU
289,College,64.86,-147.8,34.54,86,75,6.93,1599832938,US
290,Urusha,54.05,122.9,53.91,93,57,1.48,1599832941,RU
291,Purranque,-40.92,-73.17,43.83,87,75,6.93,1599832942,CL
292,Aquidauana,-20.47,-55.79,101.16,14,2,9.06,1599832857,BR
293,Kulhudhuffushi,6.62,73.07,81.37,81,0,17.87,1599832942,MV
294,Sondershausen,51.37,10.87,73.56,44,0,6.51,1599832892,DE
295,Deputatsky,69.3,139.9,40.17,73,99,1.45,1599832943,RU
296,Bima,-8.47,118.72,72.55,86,38,4.05,1599832943,ID
297,Pilar,-9.6,-35.96,78.8,69,75,14.99,1599832943,BR
298,Klichka,50.45,118.0,50.29,82,69,1.95,1599832944,RU
299,St. George's,12.06,-61.75,86.0,74,20,9.17,1599832889,GD
300,Samarkand,39.65,66.96,78.8,24,0,9.17,1599832646,UZ
301,Havelock,34.88,-76.9,82.8,92,1,2.64,1599832944,US
302,The Valley,18.22,-63.06,85.3,74,40,5.82,1599832945,AI
303,Perth,-31.93,115.83,54.54,66,10,11.41,1599832736,AU
304,Preobrazheniye,42.9,133.91,58.24,79,93,16.51,1599832948,RU
305,Ancud,-41.87,-73.82,50.0,83,74,1.99,1599832949,CL
306,Rafaela,-31.25,-61.49,70.0,47,49,5.01,1599832949,AR
307,Naviraí,-23.07,-54.19,87.15,37,100,7.85,1599832949,BR
308,Dalvik,65.97,-18.53,48.2,87,90,6.93,1599832949,IS
309,Shimoda,34.67,138.95,71.01,92,100,1.01,1599832950,JP
310,Russellville,35.28,-93.13,68.36,88,90,8.05,1599832950,US
311,Paamiut,61.99,-49.67,38.14,70,0,25.68,1599832951,GL
312,Dingle,11.0,122.67,78.04,87,100,2.35,1599832951,PH
313,Likhoslavl',57.13,35.46,56.19,68,100,8.3,1599832951,RU
314,Tunceli,39.11,39.55,89.51,13,75,12.75,1599832756,TR
315,Touros,-5.2,-35.46,82.4,69,75,13.87,1599832955,BR
316,Dom Pedro,-4.48,-44.45,94.14,31,0,5.7,1599832955,BR
317,Sur,22.57,59.53,87.28,58,100,4.29,1599832956,OM
318,Beringovskiy,63.05,179.32,48.34,86,100,14.47,1599832956,RU
319,Mar del Plata,-38.0,-57.56,54.91,54,0,14.99,1599832818,AR
320,Abalak,58.13,68.59,56.08,62,15,8.16,1599832956,RU
321,Oranjemund,-28.55,16.43,77.7,32,0,11.74,1599832957,NA
322,Quatre Cocos,-20.21,57.76,73.18,83,75,16.11,1599832957,MU
323,Ayan,56.45,138.17,53.08,67,95,5.95,1599832957,RU
324,Tura,25.52,90.22,76.15,95,100,3.76,1599832957,IN
325,Ascension,30.22,-90.9,77.25,88,1,7.56,1599832958,US
326,Faya,18.39,42.45,72.5,60,40,12.75,1599832958,SA
327,Brigantine,39.41,-74.36,73.99,96,53,15.01,1599832893,US
328,Puerto del Rosario,28.5,-13.86,82.4,58,20,17.22,1599832958,ES
329,Ahipara,-35.17,173.17,49.26,74,1,10.69,1599832959,NZ
330,Los Algarrobos,8.5,-82.43,77.58,88,40,2.24,1599832962,PA
331,Atherton,53.52,-2.49,64.54,60,74,4.0,1599832962,GB
332,Narsaq,60.92,-46.05,41.0,32,5,2.24,1599832963,GL
333,Hadgāon,19.5,77.67,78.46,86,100,6.6,1599832963,IN
334,Dābhol,17.6,73.17,78.82,88,100,2.19,1599832964,IN
335,Nurota,40.56,65.69,84.2,13,0,11.41,1599832964,UZ
336,Conchas,-23.02,-48.01,87.15,36,9,3.22,1599832964,BR
337,Upata,8.01,-62.4,78.13,89,89,2.89,1599832964,VE
338,Khāsh,28.22,61.22,79.3,16,0,17.6,1599832965,IR
339,Xai-Xai,-25.05,33.64,73.06,71,27,12.24,1599832965,MZ
340,Uyuni,-20.46,-66.83,55.96,36,0,11.52,1599832965,BO
341,Brigham City,41.51,-112.02,45.37,70,1,4.29,1599832968,US
342,Sambava,-14.27,50.17,75.33,73,34,15.99,1599832969,MG
343,Juneau,58.3,-134.42,45.25,87,20,3.29,1599832715,US
344,Ararat,39.83,44.7,87.8,20,20,3.36,1599832969,AM
345,Todos Santos,23.45,-110.22,79.0,87,10,1.01,1599832969,MX
346,Kalemie,-5.95,29.19,82.81,39,0,7.58,1599832969,CD
347,Sumenep,-7.02,113.87,80.15,80,98,10.67,1599832970,ID
348,Lingao,19.91,109.69,83.25,80,55,7.43,1599832970,CN
349,Hasaki,35.73,140.83,77.49,94,75,5.82,1599832970,JP
350,Broken Hill,-31.95,141.43,62.6,42,0,8.05,1599832971,AU
351,Cayenne,4.93,-52.33,86.0,66,75,9.17,1599832807,GF
352,Saint George,37.1,-113.58,56.34,33,1,4.7,1599832916,US
353,Oga,46.46,10.35,65.3,52,40,13.87,1599832972,IT
354,Sørland,67.67,12.69,50.0,93,75,12.75,1599832972,NO
355,Raudeberg,61.99,5.14,53.01,89,100,28.16,1599832972,NO
356,Krasnosel'kup,65.7,82.47,58.05,80,96,9.17,1599832976,RU
357,Mitsamiouli,-11.38,43.28,78.19,74,14,8.88,1599832976,KM
358,Øksfjord,70.24,22.35,53.6,54,75,4.7,1599832976,NO
359,Senador Guiomard,-10.15,-67.74,77.0,83,46,8.05,1599832976,BR
360,Imeni Poliny Osipenko,52.42,136.49,45.01,75,0,3.27,1599832976,RU
361,Bodri,23.17,81.43,80.64,69,10,1.52,1599832977,IN
362,Port Moresby,-9.44,147.18,73.2,84,0,13.38,1599832977,PG
363,La Tuque,47.43,-72.78,52.48,66,13,2.86,1599832978,CA
364,Xihe,31.69,113.47,71.15,75,100,4.27,1599832978,CN
365,Sola,-13.88,167.55,78.28,81,100,18.12,1599832978,VU
366,Vao,-22.67,167.48,67.15,68,86,14.52,1599832979,NC
367,Puerto Ayacucho,5.66,-67.62,80.6,78,40,5.82,1599832979,VE
368,São João da Barra,-21.64,-41.05,82.4,54,0,4.7,1599832980,BR
369,Ituaçu,-13.81,-41.3,75.97,48,65,9.35,1599832983,BR
370,Atar,20.52,-13.05,108.61,9,0,17.49,1599832984,MR
371,Maceió,-9.67,-35.74,78.8,69,75,14.99,1599832815,BR
372,Gumdag,39.21,54.59,87.94,27,0,10.2,1599832984,TM
373,Karratha,-20.74,116.85,79.57,39,0,9.24,1599832984,AU
374,Portland,45.52,-122.68,54.25,87,90,2.26,1599832985,US
375,Ingham,42.6,-84.38,54.82,87,1,5.82,1599832985,US
376,Myre,69.1,15.95,44.11,93,75,9.17,1599832986,NO
377,Shelburne,44.08,-80.2,54.21,66,90,5.82,1599832986,CA
378,Dunedin,-45.87,170.5,42.46,76,0,8.01,1599832984,NZ
379,Gawler,-34.6,138.73,62.65,61,82,0.78,1599832986,AU
380,Iaciara,-14.1,-46.63,97.97,14,0,3.18,1599832986,BR
381,Pucallpa,-8.38,-74.55,88.21,50,11,3.15,1599832990,PE
382,Ubari,26.59,12.78,104.16,9,49,6.44,1599832990,LY
383,Norman Wells,65.28,-126.83,39.2,100,90,3.36,1599832990,CA
384,Balakovo,52.03,47.8,68.36,38,0,11.54,1599832991,RU
385,Tommot,58.96,126.29,51.37,92,99,2.53,1599832991,RU
386,Pingxiang,27.62,113.85,72.79,89,100,1.12,1599832991,CN
387,Casa Grande,32.88,-111.76,62.37,36,1,4.7,1599832970,US
388,Libenge,3.65,18.63,80.62,86,93,5.1,1599832992,CD
389,Labytnangi,66.66,66.42,55.22,73,100,7.78,1599832992,RU
390,Arua,3.02,30.91,73.63,81,70,5.44,1599832993,UG
391,Leonding,48.28,14.25,75.11,56,20,8.05,1599832993,AT
392,Acajutla,13.59,-89.83,73.65,94,100,2.24,1599832786,SV
393,Nha Trang,12.25,109.18,87.8,74,20,6.93,1599832993,VN
394,Kargopol',61.51,38.95,57.02,65,47,8.23,1599832993,RU
395,Colares,38.8,-9.45,83.39,39,0,9.17,1599832997,PT
396,Aksarka,66.56,67.8,54.36,73,54,8.68,1599832997,RU
397,Lao Cai,22.48,103.95,78.58,84,100,1.32,1599832998,VN
398,Malmedy,50.43,6.03,69.96,52,31,6.93,1599832998,BE
399,Rāvar,31.27,56.81,84.74,14,0,12.88,1599832998,IR
400,Livingston,55.9,-3.52,57.04,87,75,20.8,1599832764,GB
401,Pauini,-7.71,-66.98,89.98,47,100,4.25,1599832998,BR
402,Auki,-8.77,160.7,75.83,85,18,4.0,1599832999,SB
403,Khorixas,-20.37,14.97,94.23,8,0,11.63,1599832999,NA
404,Santa Marta,11.24,-74.2,84.2,74,20,3.36,1599832892,CO
405,Belfort,47.63,6.87,78.12,44,37,4.7,1599832999,FR
406,Rostock,54.09,12.14,68.9,48,40,6.93,1599832804,DE
407,Porto-Novo,6.5,2.6,84.2,74,40,17.22,1599832962,BJ
408,Kruisfontein,-34.0,24.73,62.01,87,89,8.99,1599833000,ZA
409,Santa Maria,-29.68,-53.81,76.28,73,20,4.85,1599833000,BR
410,Esim,4.87,-2.24,81.1,72,97,11.1,1599833000,GH
411,Nova Olímpia,-14.8,-57.29,92.57,19,100,7.76,1599833001,BR
412,Tagusao,9.19,117.81,81.79,77,92,3.2,1599833001,PH
413,Province of Groningen,53.25,6.75,65.55,63,40,10.29,1599833002,NL
414,Ponta Delgada,37.73,-25.67,71.6,83,75,6.93,1599832886,PT
415,Winterberg,51.2,8.53,68.52,42,0,4.7,1599833006,DE
416,Morondava,-20.28,44.28,78.98,71,93,10.83,1599833006,MG
417,Sisimiut,66.94,-53.67,39.04,71,15,2.8,1599833006,GL
418,Vestmannaeyjar,63.44,-20.27,48.2,93,90,11.41,1599833007,IS
419,Hobyo,5.35,48.53,81.99,68,50,29.71,1599833007,SO
420,Manacapuru,-3.3,-60.62,80.6,78,40,6.93,1599833007,BR
421,Adrar,20.5,-10.07,106.34,11,0,9.75,1599833007,MR
422,Alyangula,-13.85,136.42,69.8,88,0,4.7,1599833008,AU
423,Burriana,39.89,-0.09,82.08,49,0,3.0,1599833008,ES
424,Walvis Bay,-22.96,14.51,63.59,56,6,6.93,1599833008,NA
425,Petropavlovsk-Kamchatskiy,53.05,158.65,48.2,100,90,2.24,1599833008,RU
426,Flinders,-34.58,150.86,55.09,81,30,1.01,1599833009,AU
427,Ulladulla,-35.35,150.47,43.39,100,0,8.95,1599833011,AU
428,Zhengjiatun,43.51,123.51,61.05,91,95,10.8,1599833011,CN
429,Los Rastrojos,10.03,-69.24,75.2,100,52,8.05,1599833011,VE
430,Baiyin,36.56,104.21,65.16,59,0,4.47,1599833011,CN
431,Le Port,-20.94,55.29,68.11,73,75,19.46,1599833012,RE
432,Vanavara,60.34,102.28,47.68,78,96,1.3,1599833012,RU
433,Port Blair,11.67,92.75,82.81,77,100,7.78,1599833012,IN
434,Iracoubo,5.48,-53.2,85.5,63,0,8.81,1599833012,GF
435,San Patricio,19.22,-104.7,80.02,76,97,3.31,1599833013,MX
436,Ketchikan,55.34,-131.65,56.1,76,1,6.93,1599833013,US
437,Banjar,-8.19,114.97,78.8,100,40,9.17,1599833013,ID
438,Shache,38.42,77.24,73.31,27,96,6.04,1599833014,CN
439,Lexington,37.99,-84.48,70.83,100,90,9.17,1599832887,US
440,Maraã,-1.83,-65.37,86.76,59,95,3.31,1599833014,BR
441,Nantucket,41.28,-70.1,66.61,88,90,21.92,1599832803,US
442,Darasun,51.67,114.0,64.4,42,0,4.47,1599833014,RU
443,Conceição do Araguaia,-8.26,-49.26,100.08,18,78,5.75,1599833014,BR
444,Palmer,42.16,-72.33,65.05,82,75,11.41,1599833015,US
445,Kieta,-6.22,155.63,77.83,79,0,4.41,1599833015,PG
446,Paita,-5.09,-81.11,60.8,82,30,21.92,1599833015,PE
447,Bathsheba,13.22,-59.52,86.0,66,20,9.17,1599833015,BB
448,Yar-Sale,66.83,70.83,55.42,68,100,8.93,1599833019,RU
449,Khandyga,62.67,135.6,45.77,77,37,1.99,1599833019,RU
450,Puri,19.8,85.85,85.28,80,80,10.78,1599833019,IN
451,Campobello di Licata,37.26,13.92,78.71,48,3,11.41,1599833019,IT
452,Lithgow,-33.48,150.15,43.0,93,72,3.02,1599833020,AU
453,Husavik,66.04,-17.34,48.2,87,90,6.93,1599833020,IS
454,Cheney,47.49,-117.58,51.35,38,1,4.7,1599833009,US
455,Terra Rica,-22.71,-52.62,84.81,39,99,10.87,1599833020,BR
456,Oodweyne,9.41,45.06,88.09,31,99,16.71,1599833021,SO
457,eMkhomazi,-30.21,30.8,67.5,83,37,10.04,1599833021,ZA
458,Yazd,31.9,54.37,91.4,16,20,9.17,1599833021,IR
459,Preeceville,51.95,-102.67,56.41,50,0,9.4,1599833022,CA
460,Tacuarembó,-31.73,-55.98,59.99,90,95,4.59,1599832932,UY
461,Asău,46.43,26.4,70.0,63,36,3.94,1599833022,RO
462,Huejuquilla el Alto,22.6,-103.87,64.36,82,92,3.09,1599833022,MX
463,Amposta,40.71,0.58,80.65,45,0,3.0,1599833022,ES
464,Östersund,63.18,14.64,53.6,50,95,10.29,1599832856,SE
465,Coyhaique,-45.58,-72.07,41.0,75,90,4.7,1599833025,CL
466,Poya,-21.35,165.15,64.2,80,7,4.54,1599833026,NC
467,Gallup,35.53,-108.74,35.29,93,1,4.7,1599833026,US
468,Bowling Green,36.99,-86.44,75.47,88,1,5.82,1599832979,US
469,Grand Gaube,-20.01,57.66,73.0,74,11,10.0,1599833026,MU
470,Sobolevo,54.43,31.9,57.6,68,31,9.91,1599833026,RU
471,Alindao,5.03,21.21,83.26,73,58,3.13,1599833027,CF
472,Margate,51.38,1.39,68.0,60,64,3.0,1599833027,GB
473,Honiara,-9.43,159.95,75.2,100,20,3.36,1599833027,SB
474,Marystown,47.17,-55.15,64.0,100,100,9.98,1599833027,CA
475,Masvingo,-20.06,30.83,73.54,28,0,12.21,1599833028,ZW
476,Galway,53.27,-9.05,56.97,93,75,13.87,1599833028,IE
477,Vostok,46.49,135.88,45.72,98,0,3.15,1599833028,RU
478,Anloga,5.79,0.9,86.0,66,20,14.99,1599833028,GH
479,Orbetello,42.44,11.22,77.23,78,75,5.82,1599833028,IT
480,Wagar,16.15,36.2,97.05,31,6,5.73,1599833029,SD
481,Safaga,26.73,33.94,96.8,53,0,6.93,1599833029,EG
482,Santa Lucía,27.91,-15.54,77.36,61,20,29.97,1599833029,ES
483,Gacko,43.17,18.54,93.09,26,20,4.7,1599833029,BA
484,Araouane,18.9,-3.53,103.87,24,0,8.05,1599833030,ML
485,Provideniya,64.38,-173.3,43.72,80,96,3.36,1599833033,RU
486,Kudahuvadhoo,2.67,72.89,82.15,80,100,14.85,1599833033,MV
487,Caxito,-8.58,13.66,77.0,73,40,9.17,1599833033,AO
488,Xingcheng,40.62,120.72,63.97,89,32,12.24,1599833034,CN
489,Kousséri,12.08,15.03,87.8,58,40,6.93,1599833034,CM
490,Sungai Penuh,-2.08,101.38,66.52,95,95,1.3,1599833034,ID
491,Rāni,25.35,73.31,85.51,64,70,4.5,1599833034,IN
492,Talnakh,69.49,88.4,53.6,87,75,17.9,1599833035,RU
493,Brookings,44.31,-96.8,50.61,87,90,8.05,1599833035,US
494,Niterói,-22.88,-43.1,80.44,78,40,6.93,1599832925,BR
495,Shingū,33.73,135.98,74.35,90,14,4.34,1599833035,JP
496,Hambantota,6.12,81.12,82.4,88,40,8.05,1599833035,LK
497,Slave Lake,55.28,-114.77,57.2,82,90,9.17,1599832782,CA
498,Oranjestad,12.52,-70.03,86.0,70,40,13.87,1599833036,AW
499,Tegul'det,57.31,88.17,46.22,90,3,1.72,1599833036,RU
500,Chapais,49.78,-74.85,46.4,93,90,9.17,1599833036,CA
501,Srandakan,-7.94,110.25,75.4,87,72,6.11,1599833036,ID
502,Dongsheng,39.82,109.98,62.24,43,14,7.9,1599833037,CN
503,Sergeevka,53.88,67.42,58.96,46,42,8.46,1599833040,KZ
504,Caravelas,-17.71,-39.25,80.73,55,9,8.75,1599833040,BR
505,Yarmouth,41.71,-70.23,66.36,82,90,13.87,1599833041,US
506,Bonthe,7.53,-12.51,77.92,86,100,14.32,1599833042,SL
507,Florida,28.75,-82.5,81.05,100,90,5.82,1599833042,US
508,Jining,35.41,116.58,66.34,77,47,6.29,1599833043,CN
509,Hillsboro,45.52,-122.99,52.16,93,90,1.32,1599832855,US
510,Northfield,44.46,-93.16,48.42,93,90,3.36,1599833043,US
511,Biak,-0.91,122.88,76.84,84,77,7.31,1599833047,ID
512,Kouango,4.99,19.96,81.55,84,57,2.86,1599833047,CF
513,Dvinskoy Bereznik,62.86,42.71,49.6,87,100,10.78,1599833047,RU
514,Birjand,32.87,59.22,80.6,11,0,13.87,1599833048,IR
515,Priiskovyy,51.93,116.63,54.63,70,0,4.88,1599833048,RU
516,Cabo San Lucas,22.89,-109.91,76.64,87,94,1.99,1599833030,MX
517,Sahāranpur,29.97,77.55,83.68,54,0,3.56,1599832986,IN
518,Shar,49.59,81.05,55.78,51,0,9.55,1599833048,KZ
519,Avera,33.19,-82.53,78.71,74,1,5.82,1599833049,US
520,Revelstoke,50.98,-118.2,46.4,93,1,1.34,1599832840,CA
521,Kyren,51.68,102.14,41.72,83,100,1.28,1599833049,RU
522,Benito Juarez,19.39,-99.17,59.0,82,90,5.82,1599833049,MX
523,Ballyhaunis,53.77,-8.77,57.2,76,75,20.8,1599833050,IE
524,Champerico,14.3,-91.92,70.48,94,75,3.38,1599833050,GT
525,Pangnirtung,66.15,-65.71,35.6,69,75,2.19,1599833050,CA
526,Bonavista,48.65,-53.11,54.16,92,100,16.73,1599833051,CA
527,Kuytun,54.34,101.5,42.35,94,100,4.79,1599833054,RU
528,Adolfo López Mateos,28.47,-107.3,57.99,95,71,7.2,1599833054,MX
529,Carson City,39.16,-119.77,40.86,74,90,5.82,1599833003,US
530,Kaputa,-8.47,29.66,87.85,25,20,3.31,1599833055,ZM
531,Hamina,60.57,27.2,56.68,58,20,10.29,1599833055,FI
532,Waddān,29.16,16.14,98.24,17,0,5.68,1599833055,LY
533,Daru,-9.08,143.21,76.32,84,66,15.7,1599833056,PG
534,Amlapura,-8.45,115.62,78.8,100,40,9.17,1599833056,ID
535,Kaeo,-35.1,173.78,46.0,3,0,4.0,1599833056,NZ
536,Prado,-17.34,-39.22,78.78,61,0,8.84,1599833056,BR
537,Merrill,45.18,-89.68,34.79,100,90,3.8,1599833057,US
538,Kasese,0.18,30.08,81.07,48,50,3.33,1599833057,UG
539,Katumba,-9.23,33.62,70.43,51,39,9.86,1599833057,TZ
540,Gonaïves,19.45,-72.68,84.52,67,0,1.61,1599833057,HT
541,Ardakān,32.31,54.02,91.4,16,20,9.17,1599833061,IR
542,Ulaangom,49.98,92.07,46.27,53,41,3.74,1599833061,MN
543,Gīdam,18.98,81.4,78.35,87,76,1.7,1599833061,IN
544,Santa Rosalía,27.32,-112.28,80.15,52,0,4.07,1599833062,MX
545,Kiruna,67.86,20.23,48.2,61,100,12.75,1599833062,SE
546,Leh,34.17,77.58,60.73,23,0,4.85,1599833062,IN
547,San Miguel de Cozumel,20.51,-86.95,81.34,88,75,3.36,1599833062,MX
548,Koungou,-12.73,45.2,80.6,65,20,8.05,1599833062,YT
549,Pottsville,40.69,-76.2,70.59,77,20,3.0,1599833063,US
550,Jega,12.22,4.38,90.99,51,99,8.99,1599833063,NG
551,Springfield,37.22,-93.3,63.21,100,90,3.36,1599832790,US
552,Nísia Floresta,-6.09,-35.21,82.4,61,75,19.46,1599833063,BR
553,Armidale,-30.52,151.65,37.0,83,9,5.86,1599833063,AU
554,Yulara,-25.24,130.99,80.6,19,0,5.82,1599833064,AU
555,Novyy Urgal,51.07,132.56,45.77,87,0,0.67,1599833064,RU
556,Liverpool,53.41,-2.98,62.92,63,20,14.99,1599832771,GB
557,Olafsvik,64.89,-23.71,46.85,83,100,36.22,1599833064,IS
558,San Policarpo,12.18,125.51,81.66,74,71,2.39,1599833064,PH
559,Whitehorse,60.72,-135.05,38.86,80,90,8.05,1599832846,CA
560,Vardø,70.37,31.11,53.6,66,40,4.7,1599833012,NO
561,Craig,40.52,-107.55,38.52,86,90,1.99,1599833068,US
562,Carutapera,-1.2,-46.02,85.24,64,99,10.25,1599833068,BR
563,Jiménez,28.33,-105.4,65.82,60,100,5.53,1599833068,MX
564,Skellefteå,64.75,20.95,59.0,41,14,10.29,1599833069,SE
565,Kasongo-Lunda,-6.47,16.82,92.17,29,99,1.86,1599833069,CD
566,San Francisco,37.77,-122.42,56.1,87,90,2.01,1599832832,US
567,Koulamoutou,-1.13,12.47,84.45,68,96,1.39,1599833069,GA
568,Moose Factory,51.26,-80.61,50.0,81,90,9.17,1599833070,CA
569,Yatou,37.15,122.38,65.93,92,100,7.78,1599833070,CN
570,Melfi,41.0,15.65,87.49,37,0,13.87,1599833070,IT
